,place_id,lat,lon,place_name,category,place_address,evalInfo
0,20000,37.562725711470605,127.03256993326957,(구)왕십리클리닉빌딩,bank,서울특별시 성동구 왕십리로 333,"계단 또는 승강설비,대변기,장애인전용주차구역,주출입구 높이차이 제거,주출입구 접근로,출입구(문),해당시설 층수"
1,20001,37.57393739290491,126.9831873379122,(재)대한불교계종유지재단,shopping/mart,서울특별시 종로구 우정국로 56,"주출입구 높이차이 제거,주출입구 접근로,출입구(문)"
2,20002,37.485281715327524,126.93135450484702,(주)관전인베스트먼트,tourist hotel,서울특별시 관악구 신림로64길29 (신림동),"객실 및 침실,계단 또는 승강설비,대변기,복도,세면대,소변기,일반사항,장애인전용주차구역,주출입구 높이차이 제거,주출입구 접근로,출입구(문),해당시설 층수"
3,20003,37.49076760950892,126.98204810181372,(주)대광메디텍,shopping/mart,서울특별시 동작구 동작대로35길 5,"주출입구 높이차이 제거,주출입구 접근로,출입구(문)"
4,20004,37.54493236039384,126.91069614091882,(주)동아일보사,bank,서울특별시 마포구 토정로 1,"계단 또는 승강설비,대변기,일반사항,장애인전용주차구역,주출입구 높이차이 제거,주출입구 접근로,출입구(문),해당시설 층수"
5,20005,37.57247161584318,126.9702105211059,(주)메트로신문사,bank,서울특별시 종로구 경희궁길 ,"계단 또는 승강설비,대변기,복도,일반사항,주출입구 높이차이 제거,주출입구 접근로,출입구(문),해당시설 층수"
6,20006,37.5243947731199,127.02796032924721,(주)박정어학원,education/job,서울특별시 강남구 논현로 843,"계단 또는 승강설비,대변기,소변기,장애인전용주차구역,주출입구 높이차이 제거,주출입구 접근로,출입구(문),해당시설 층수"
7,20007,37.527233321732965,127.14678480586302,(주)보점,shopping/mart,서울특별시 강동구 진황도로61길 76-16,"주출입구 높이차이 제거,주출입구 접근로,출입구(문)"
8,20008,37.5119517380466,127.03535292701632,(주)서울비젼,bank,서울특별시 강남구 언주로  621,"계단 또는 승강설비,대변기,장애인전용주차구역,주출입구 높이차이 제거,주출입구 접근로,출입구(문),해당시설 층수"
9,20009,37.5101188718842,127.1131229635106,(주)승산디앤아이,hospital,서울특별시 송파구 오금로  165,"계단 또는 승강설비,대변기,일반사항,장애인전용주차구역,주출입구 높이차이 제거,주출입구 접근로,출입구(문),해당시설 층수"
10,20010,37.47632277942795,126.9662240072697,(주)시아인베스트,bank,서울특별시 관악구 남부순환로1953 (봉천동),"계단 또는 승강설비,대변기,복도,일반사항,장애인전용주차구역,주출입구 높이차이 제거,주출입구 접근로,출입구(문),해당시설 층수"
11,20011,37.507936191004255,127.02359751611726,(주) 씨머스,restaurant,서울특별시 강남구 학동로2길  56,"장애인전용주차구역,주출입구 높이차이 제거,주출입구 접근로,출입구(문)"
12,20012,37.48477554594143,126.92864589109418,(주)씨엔에스레지던스,bank,서울특별시 관악구 신림로65길15-8 (신림동),"계단 또는 승강설비,대변기,복도,일반사항,장애인전용주차구역,주출입구 높이차이 제거,주출입구 접근로,출입구(문),해당시설 층수"
13,20013,37.50736203942998,127.04087912565278,(주)아이 에스 케이,restaurant,서울특별시 강남구 봉은사로44길 31,"장애인전용주차구역,주출입구 높이차이 제거,주출입구 접근로,출입구(문)"
14,20014,37.504031187699766,127.03152203353645,(주)야놀자,shopping/mart,서울특별시 강남구 봉은사로24길 46,"주출입구 높이차이 제거,주출입구 접근로,출입구(문)"
15,20015,37.49671491998756,127.03188987578517,(주)에도긴,restaurant,서울특별시 강남구 테헤란로8길  34,"장애인전용주차구역,주출입구 높이차이 제거,주출입구 접근로,출입구(문)"
16,20016,37.502578768066954,127.03151689917243,(주)엠씨피이앤에프,shopping/mart,서울특별시 강남구 테헤란로13길 44,"주출입구 높이차이 제거,주출입구 접근로,출입구(문)"
17,20017,37.49949430360649,127.02926287275582,(주)옥스비 학원(유빌딩),education/job,서울특별시 강남구 테헤란로5길 11,"계단 또는 승강설비,대변기,소변기,장애인전용주차구역,주출입구 높이차이 제거,주출입구 접근로,출입구(문),해당시설 층수"
18,20018,37.49865657048389,127.06811943975664,(주)정상에이엘에스(서림상가빌딩),education/job,서울특별시 강남구 영동대로 221,"계단 또는 승강설비,대변기,소변기,장애인전용주차구역,주출입구 높이차이 제거,주출입구 접근로,출입구(문),해당시설 층수"
19,20019,37.44568610901251,126.90334216472411,(주)툴스텍경복,bank,서울특별시 금천구 시흥대로129 (시흥동),"계단 또는 승강설비,대변기,복도,일반사항,장애인전용주차구역,주출입구 높이차이 제거,주출입구 접근로,출입구(문),해당시설 층수"
20,20020,37.490626396835836,126.82598141709924,123전자타운(2동),education/job,서울특별시 구로구 경인로  33-7,"계단 또는 승강설비,대변기,소변기,일반사항,장애인전용주차구역,주출입구 높이차이 제거,주출입구 접근로,출입구(문),해당시설 층수"
21,20021,37.49807381209398,126.86267657272226,123전자타운(3동),shopping,서울특별시 구로구 중앙로1길 36,"계단 또는 승강설비,대변기,비치용품,일반사항,장애인전용주차구역,주출입구 높이차이 제거,주출입구 접근로,출입구(문),해당시설 층수"
22,20022,37.448882813996505,126.9032295598329,153플레이스,education/job,서울특별시 금천구 시흥대로 164,"계단 또는 승강설비,대변기,소변기,일반사항,장애인전용주차구역,주출입구 높이차이 제거,주출입구 접근로,출입구(문),해당시설 층수"
23,20023,37.51776773221103,127.02465485676845,1st 퍼스트 에비뉴 타워,hospital,서울특별시 강남구 도산대로  144,"계단 또는 승강설비,대변기,일반사항,장애인전용주차구역,주출입구 높이차이 제거,주출입구 접근로,출입구(문),해당시설 층수"
24,20024,37.641287844624024,127.06790955280069,2001아울렛중계점,shopping,서울특별시 노원구 동일로204가길 46,"계단 또는 승강설비,대변기,복도,비치용품,일반사항,장애인전용주차구역,주출입구 높이차이 제거,주출입구 접근로,출입구(문),해당시설 층수"
25,20025,37.541590932377304,127.12553578491348,2001아울렛천호점,shopping,서울특별시 강동구 구천면로 189,"계단 또는 승강설비,대변기,일반사항,장애인전용주차구역,주출입구 높이차이 제거,주출입구 접근로,출입구(문),해당시설 층수"
26,20026,37.48257934552852,127.01729417146434,21세기병원,hospital,서울특별시 서초구 서초중앙로  3,"객실 및 침실,경보 및 피난설비,계단 또는 승강설비,대변기,세면대,소변기,유도 및 안내 설비,장애인전용주차구역,점자블록,주출입구 높이차이 제거,주출입구 접근로,출입구(문),해당시설 층수"
27,20027,37.61089692823958,127.03056135767923,21세기 연세학원,education/job,서울특별시 강북구 도봉로 18,"계단 또는 승강설비,대변기,소변기,장애인전용주차구역,주출입구 높이차이 제거,주출입구 접근로,출입구(문),해당시설 층수"
28,20028,37.55627627815416,126.97434557904826,2431빌딩,hospital,서울특별시 중구 퇴계로 14,"계단 또는 승강설비,대변기,복도,일반사항,주출입구 높이차이 제거,주출입구 접근로,출입구(문),해당시설 층수"
29,20029,37.515195916662094,126.85912062121912,2차대림아크로빌,bank,서울특별시 양천구 목동서로 411,"계단 또는 승강설비,대변기,장애인전용주차구역,주출입구 높이차이 제거,주출입구 접근로,출입구(문),해당시설 층수"
30,20030,37.654771948809916,127.04047930965488,2층산후조리원,hospital,서울특별시 도봉구 해등로  125,"계단 또는 승강설비,대변기,일반사항,장애인전용주차구역,주출입구 높이차이 제거,주출입구 접근로,출입구(문),해당시설 층수"
31,20031,37.642786496859834,127.03672011967795,2층소매점(다이소),shopping/mart,서울특별시 도봉구 덕릉로63가길 68,"주출입구 높이차이 제거,주출입구 접근로,출입구(문)"
32,20032,37.55269245652335,126.92184536159417,2층에오렌지룸(일반음식점),restaurant,서울특별시 마포구 어울마당로  86,"장애인전용주차구역,주출입구 높이차이 제거,주출입구 접근로,출입구(문)"
33,20033,37.6680283466912,127.0470649989263,"3,4,5,6층학원",education/job,서울특별시 도봉구 마들로650 (방학동),"계단 또는 승강설비,대변기,복도,소변기,일반사항,장애인전용주차구역,주출입구 높이차이 제거,주출입구 접근로,출입구(문),해당시설 층수"
34,20034,37.66310040615856,127.04110944975068,4층의원,hospital,서울특별시 도봉구 방학로102 (방학동),"계단 또는 승강설비,대변기,복도,일반사항,장애인전용주차구역,주출입구 높이차이 제거,주출입구 접근로,출입구(문),해당시설 층수"
35,20035,37.633687208643174,127.03453590547407,5단지종합사회복지관,apartment subsidiary facility,서울특별시 강북구 한천로115길 24,"계단 또는 승강설비,대변기,세면대,소변기,일반사항,주출입구 높이차이 제거,주출입구 접근로,출입구(문),해당시설 층수"
36,20036,37.56770614087575,126.84203395903877,5번가빌딩,restaurant,서울특별시 강서구 양천로 358,"장애인전용주차구역,주출입구 높이차이 제거,주출입구 접근로,출입구(문)"
37,20037,37.55684692476339,126.84719504689497,88체육관,bank,서울특별시 강서구 공항대로 376,"계단 또는 승강설비,대변기,일반사항,장애인전용주차구역,주출입구 높이차이 제거,주출입구 접근로,출입구(문),해당시설 층수"
38,20038,37.51627692321338,126.89739188005929,A&D 엔지니어링,bank,서울특별시 영등포구 당산로4길 13,"계단 또는 승강설비,대변기,일반사항,장애인전용주차구역,주출입구 높이차이 제거,주출입구 접근로,출입구(문),해당시설 층수"
39,20039,37.522239182930285,127.02957039884276,A&GEM빌딩,bank,서울특별시 강남구 논현로158길  15,"계단 또는 승강설비,장애인전용주차구역,주출입구 높이차이 제거,주출입구 접근로,출입구(문),해당시설 층수"
40,20040,37.52747462706088,127.03396195128164,A+ 치과병원,hospital,서울특별시 강남구 언주로 864,"객실 및 침실,경보 및 피난설비,계단 또는 승강설비,대변기,세면대,소변기,유도 및 안내 설비,장애인전용주차구역,점자블록,주출입구 높이차이 제거,주출입구 접근로,출입구(문),해당시설 층수"
41,20041,37.5593892096474,126.92266683978791,A.N.T빌딩(시설),bank,서울특별시 마포구 월드컵북로4길 77,"계단 또는 승강설비,대변기,일반사항,장애인전용주차구역,주출입구 높이차이 제거,주출입구 접근로,출입구(문),해당시설 층수"
42,20042,37.56316526377636,126.98446195872727,ABC마트,shopping/mart,서울특별시 중구 명동8길  12,"주출입구 높이차이 제거,주출입구 접근로,출입구(문)"
43,20043,37.50096535901561,127.02667139942554,ABC마트 빌딩,restaurant,서울특별시 강남구 강남대로 434,"장애인전용주차구역,주출입구 높이차이 제거,주출입구 접근로,출입구(문)"
44,20044,37.520173757073195,127.03085010278649,ACE에비뉴빌딩(ACE침대 서울지점),exhibition center,서울특별시 강남구 도산대로 218,"경보 및 피난설비,계단 또는 승강설비,대변기,비치용품,일반사항,장애인전용주차구역,주출입구 높이차이 제거,주출입구 접근로,출입구(문),해당시설 층수"
45,20045,37.485705957369866,126.89551154885758,ACE테크노타워8차,factory,서울특별시 구로구 디지털로33길 11,"대변기,소변기,장애인전용주차구역,주출입구 높이차이 제거,주출입구 접근로,출입구(문)"
46,20046,37.483953143582305,126.89410293398274,ACE트윈타워2차,factory,서울특별시 구로구 디지털로 273,"대변기,소변기,장애인전용주차구역,주출입구 높이차이 제거,주출입구 접근로,출입구(문)"
47,20047,37.48448689981334,126.89450469624234,AC트윈타워1차,factory,서울특별시 구로구 디지털로 285,"대변기,소변기,장애인전용주차구역,주출입구 높이차이 제거,주출입구 접근로,출입구(문)"
48,20048,37.51540776827161,127.02122902282288,AE엔터테인먼트,restaurant,서울특별시 강남구 도산대로4길 16,"장애인전용주차구역,주출입구 높이차이 제거,주출입구 접근로,출입구(문)"
49,20049,37.49345568764088,127.02114139054106,AIFA빌딩,education/job,서울특별시 서초구 서초대로64길  -46,"계단 또는 승강설비,대변기,소변기,일반사항,장애인전용주차구역,주출입구 높이차이 제거,주출입구 접근로,출입구(문),해당시설 층수"
50,20050,37.50126005291881,127.04195695360528,AMCO빌딩,bank,서울특별시 강남구 언주로85길  14,"계단 또는 승강설비,대변기,일반사항,장애인전용주차구역,주출입구 높이차이 제거,주출입구 접근로,출입구(문),해당시설 층수"
51,20051,37.52508989621734,127.04170783986784,ANG클리닉,hospital,서울특별시 강남구 도산대로57길 22,"계단 또는 승강설비,대변기,장애인전용주차구역,주출입구 높이차이 제거,주출입구 접근로,출입구(문),해당시설 층수"
52,20052,37.55754541662573,126.80953756885633,APP㈜국제운송사무소,bank,서울특별시 강서구 남부순환로  51,"계단 또는 승강설비,대변기,장애인전용주차구역,주출입구 높이차이 제거,주출입구 접근로,출입구(문),해당시설 층수"
53,20053,37.52525621235386,127.04017392047133,ARTPILATES(JW빌딩),restaurant,서울특별시 강남구 선릉로  822,"장애인전용주차구역,주출입구 높이차이 제거,주출입구 접근로,출입구(문)"
54,20054,37.502892390332825,127.05941957632778,AURA-J,education/job,서울특별시 강남구 삼성로 354-5,"계단 또는 승강설비,대변기,소변기,장애인전용주차구역,주출입구 높이차이 제거,주출입구 접근로,출입구(문),해당시설 층수"
55,20055,37.56836848175028,126.93131907675891,AiRS빌딩,restaurant,서울특별시 서대문구 연희맛로  42,"장애인전용주차구역,주출입구 높이차이 제거,주출입구 접근로,출입구(문)"
56,20056,37.53812628974152,126.84060736421702,A탑,bank,서울특별시 강서구 가로공원로  223,"계단 또는 승강설비,대변기,장애인전용주차구역,주출입구 높이차이 제거,주출입구 접근로,출입구(문),해당시설 층수"
57,20057,37.556774734771864,126.92581581620566,B&J빌딩 ,restaurant,서울특별시 마포구 양화로18안길 22,"장애인전용주차구역,주출입구 높이차이 제거,주출입구 접근로,출입구(문)"
58,20058,37.50871938209383,127.03382225311547,B&M빌딩,bank,서울특별시 강남구 논현로114길  5,"계단 또는 승강설비,대변기,장애인전용주차구역,주출입구 높이차이 제거,주출입구 접근로,출입구(문),해당시설 층수"
59,20059,37.517500315625384,127.02788988703722,B2M엔터테인먼트,shopping/mart,서울특별시 강남구 논현로145길 11-7,"주출입구 높이차이 제거,주출입구 접근로,출입구(문)"
60,20060,37.48698161071334,126.89531529187082,BIZ.Center1차,factory,서울특별시 구로구 디지털로33길 28,"대변기,소변기,장애인전용주차구역,주출입구 높이차이 제거,주출입구 접근로,출입구(문)"
61,20061,37.48655347790564,126.89616164764327,BIZ.Center2차,factory,서울특별시 구로구 디지털로33길 12,"대변기,소변기,일반사항,장애인전용주차구역,주출입구 높이차이 제거,주출입구 접근로,출입구(문)"
62,20062,37.518369709871884,127.02413471508152,BK동양 성형외과 빌딩,hospital,서울특별시 강남구 도산대로  146,"계단 또는 승강설비,대변기,장애인전용주차구역,주출입구 높이차이 제거,주출입구 접근로,출입구(문),해당시설 층수"
63,20063,37.50569358374981,127.05766651243508,BK빌딩,bank,서울특별시 강남구 삼성로 434,"계단 또는 승강설비,대변기,일반사항,장애인전용주차구역,주출입구 높이차이 제거,주출입구 접근로,출입구(문),해당시설 층수"
64,20064,37.54629580737235,126.84547393147659,BMC한방병원,hospital,서울특별시 강서구 화곡로 238,"객실 및 침실,경보 및 피난설비,계단 또는 승강설비,대변기,세면대,소변기,유도 및 안내 설비,장애인전용주차구역,점자블록,주출입구 높이차이 제거,주출입구 접근로,출입구(문),해당시설 층수"
65,20065,37.54741726834909,126.92923803213857,BR엘리텔A동,bank,서울특별시 마포구 독막로  141,"계단 또는 승강설비,대변기,일반사항,장애인전용주차구역,주출입구 높이차이 제거,주출입구 접근로,출입구(문),해당시설 층수"
66,20066,37.54863241296082,126.91386481787089,BR엘리텔B동,restaurant,서울특별시 마포구 독막로1길 15,"장애인전용주차구역,주출입구 높이차이 제거,주출입구 접근로,출입구(문)"
67,20067,37.52386374582125,127.03277475781607,BUTAYA(포도빌딩),hospital,서울특별시 강남구 언주로  825,"계단 또는 승강설비,대변기,장애인전용주차구역,주출입구 높이차이 제거,주출입구 접근로,출입구(문),해당시설 층수"
68,20068,37.477047372356985,126.88221477423684,BYC HIGHCITY,factory,서울특별시 금천구 가산디지털1로  131,"대변기,소변기,일반사항,장애인전용주차구역,주출입구 높이차이 제거,주출입구 접근로,출입구(문)"
69,20069,37.54162558570012,127.04967845596877,BizWell성수,bank,서울특별시 성동구 뚝섬로3길 16,"계단 또는 승강설비,대변기,장애인전용주차구역,주출입구 높이차이 제거,주출입구 접근로,출입구(문),해당시설 층수"
70,20070,37.567417313215074,127.04579726605475,CASA BIANCO,bank,서울특별시 성동구 마장로46길 4,"계단 또는 승강설비,대변기,장애인전용주차구역,주출입구 높이차이 제거,주출입구 접근로,출입구(문),해당시설 층수"
71,20071,37.53746330142182,126.88400708899171,CBS방송국,broadcasting station,서울특별시 양천구 목동서로 15-1,"계단 또는 승강설비,대변기,장애인전용주차구역,주출입구 높이차이 제거,주출입구 접근로,출입구(문),해당시설 층수"
72,20072,37.56091639861344,126.96702792776361,CENTRAL PLACE,bank,서울특별시 중구 서소문로 54,"계단 또는 승강설비,대변기,복도,일반사항,주출입구 높이차이 제거,주출입구 접근로,출입구(문),해당시설 층수"
73,20073,37.5284437241851,127.12535988866115,CGV,concert hall,서울특별시 강동구 성내로 48,"객실 및 침실,경보 및 피난설비,계단 또는 승강설비,관람석 및 열람석,대변기,매표소, 판매기, 음료대,비치용품,세면대,소변기,유도 및 안내 설비,장애인전용주차구역,점자블록,접수대 및 작업대,주출입구 높이차이 제거,주출입구 접근로,출입구(문),해당시설 층수"
74,20074,37.50115888382456,126.88277403171674,CGV구로14,concert hall,서울특별시 구로구 구로중앙로 152,"객실 및 침실,경보 및 피난설비,계단 또는 승강설비,관람석 및 열람석,대변기,매표소, 판매기, 음료대,비치용품,세면대,소변기,유도 및 안내 설비,일반사항,장애인전용주차구역,점자블록,접수대 및 작업대,주출입구 높이차이 제거,주출입구 접근로,출입구(문),해당시설 층수"
75,20075,37.5635262478331,126.8984363299834,CGV상암14,concert hall,서울특별시 마포구 월드컵로 244,"객실 및 침실,경보 및 피난설비,관람석 및 열람석,대변기,매표소, 판매기, 음료대,비치용품,세면대,소변기,유도 및 안내 설비,장애인전용주차구역,점자블록,접수대 및 작업대,주출입구 높이차이 제거,주출입구 접근로,출입구(문),해당시설 층수"
76,20076,37.5297699998206,126.96474274881271,CGV용산 11,movie,서울특별시 용산구 한강대로23길 55,"객실 및 침실,경보 및 피난설비,계단 또는 승강설비,관람석 및 열람석,대변기,매표소, 판매기, 음료대,복도,비치용품,세면대,소변기,유도 및 안내 설비,일반사항,점자블록,접수대 및 작업대,주출입구 높이차이 제거,주출입구 접근로,출입구(문),해당시설 층수"
77,20077,37.499962057904845,127.05993746615366,CH빌딩(유기농 전문매장),hospital,서울특별시 강남구 삼성로  315,"계단 또는 승강설비,대변기,일반사항,장애인전용주차구역,주출입구 높이차이 제거,주출입구 접근로,출입구(문),해당시설 층수"
78,20078,37.65629307004793,127.03970498394384,CIS어학학원,education/job,서울특별시 도봉구 도봉로   578,"계단 또는 승강설비,대변기,소변기,장애인전용주차구역,주출입구 높이차이 제거,주출입구 접근로,출입구(문),해당시설 층수"
79,20079,37.5996059755565,126.9173618295672,CJ드림씨티 A동 ,bank,서울특별시 은평구 은평로 85,"계단 또는 승강설비,대변기,장애인전용주차구역,주출입구 높이차이 제거,주출입구 접근로,출입구(문),해당시설 층수"
80,20080,37.59658701194705,126.90913067525103,CJ드림씨티 B동 ,bank,서울특별시 은평구 은평로 1,"계단 또는 승강설비,대변기,장애인전용주차구역,주출입구 높이차이 제거,주출입구 접근로,출입구(문),해당시설 층수"
81,20081,37.57286532256382,126.9297437356552,CNT빌딩,shopping/mart,서울특별시 서대문구 증가로2길 35,"주출입구 높이차이 제거,주출입구 접근로,출입구(문)"
82,20082,37.54042013582523,127.09397386009871,CS PLAZA,education/job,서울특별시 광진구 아차산로 471,"계단 또는 승강설비,대변기,소변기,일반사항,장애인전용주차구역,주출입구 높이차이 제거,주출입구 접근로,출입구(문),해당시설 층수"
83,20083,37.480460650430835,126.94764409952008,CS오피스텔,bank,서울특별시 관악구 남부순환로214길  25,"계단 또는 승강설비,대변기,장애인전용주차구역,주출입구 높이차이 제거,주출입구 접근로,출입구(문),해당시설 층수"
84,20084,37.57538962414109,126.98201875098026,CS타워,bank,서울특별시 종로구 율곡로24길 24,"계단 또는 승강설비,대변기,복도,일반사항,주출입구 높이차이 제거,주출입구 접근로,출입구(문),해당시설 층수"
85,20085,37.513423973613804,126.94186605207358,CTS기독교방송국,broadcasting station,서울특별시 동작구 노량진로 144,"계단 또는 승강설비,대변기,장애인전용주차구역,주출입구 높이차이 제거,주출입구 접근로,출입구(문),해당시설 층수"
86,20086,37.479601654149285,126.90077050104735,CT퍼니처,shopping/mart,서울특별시 관악구 남부순환로 1351,"주출입구 높이차이 제거,주출입구 접근로,출입구(문)"
87,20087,37.52419006726171,127.03824115467104,CULISSU GAIA,restaurant,서울특별시 강남구 도산대로53길 15,"장애인전용주차구역,주출입구 높이차이 제거,주출입구 접근로,출입구(문)"
88,20088,37.518250859951394,127.02372745504137,CU 신사가로수길점,bank,서울특별시 강남구 도산대로 139,"계단 또는 승강설비,대변기,장애인전용주차구역,주출입구 높이차이 제거,주출입구 접근로,출입구(문),해당시설 층수"
89,20089,37.48942623586715,127.02194533944828,DHL,shopping/mart,서울특별시 서초구 사임당로 ,"주출입구 높이차이 제거,주출입구 접근로,출입구(문)"
90,20090,37.56632983915022,127.01327037457386,DPSR,shopping/mart,서울특별시 중구 퇴계로73가길 21,"주출입구 높이차이 제거,주출입구 접근로,출입구(문)"
91,20091,37.51627692321338,126.89739188005929,DSBC,bank,서울특별시 영등포구 당산로4길  11,"계단 또는 승강설비,대변기,일반사항,장애인전용주차구역,주출입구 높이차이 제거,주출입구 접근로,출입구(문),해당시설 층수"
92,20092,37.55829388925655,126.94204851146051,Ditto HOTEL,tourist hotel,서울특별시 서대문구 연세로2마길  24,"객실 및 침실,경보 및 피난설비,계단 또는 승강설비,관람석 및 열람석,장애인전용주차구역,주출입구 높이차이 제거,주출입구 접근로,출입구(문),해당시설 층수"
93,20093,37.486759731559886,126.89304516372565,E&C벤쳐드림타워2차,factory,서울특별시 구로구 디지털로33길 55,"대변기,소변기,일반사항,장애인전용주차구역,주출입구 높이차이 제거,주출입구 접근로,출입구(문)"
94,20094,37.48652246987807,126.8937148719402,E&C벤쳐드림타워3차,factory,서울특별시 구로구 디지털로31길 38-21,"대변기,소변기,일반사항,장애인전용주차구역,주출입구 높이차이 제거,주출입구 접근로,출입구(문)"
95,20095,37.48549054752402,126.89242283940037,E&C벤쳐드림타워5차,factory,서울특별시 구로구 디지털로31길 53,"대변기,소변기,장애인전용주차구역,주출입구 높이차이 제거,주출입구 접근로,출입구(문)"
96,20096,37.48517008926321,126.89275345515308,E&C벤쳐드림타워6차,factory,서울특별시 구로구 디지털로31길 41,"대변기,소변기,장애인전용주차구역,주출입구 높이차이 제거,주출입구 접근로,출입구(문)"
97,20097,37.60554672185674,127.09511121212167,E-Park에듀센터,education/job,서울특별시 중랑구 신내로  71,"계단 또는 승강설비,대변기,소변기,일반사항,장애인전용주차구역,주출입구 높이차이 제거,주출입구 접근로,출입구(문),해당시설 층수"
98,20098,37.55045647018119,126.83601374301814,E.S빌딩,education/job,서울특별시 강서구 강서로  277,"계단 또는 승강설비,대변기,소변기,일반사항,장애인전용주차구역,주출입구 높이차이 제거,주출입구 접근로,출입구(문),해당시설 층수"
99,20099,37.474683916185064,127.05112639279658,EBM 통합의학,hospital,서울특별시 강남구 논현로8길 28,"객실 및 침실,경보 및 피난설비,계단 또는 승강설비,대변기,세면대,소변기,유도 및 안내 설비,일반사항,장애인전용주차구역,점자블록,주출입구 높이차이 제거,주출입구 접근로,출입구(문),해당시설 층수"
100,20100,37.593370130768015,127.01599271295977,ECCplus학원,education/job,서울특별시 성북구 아리랑로 7,"계단 또는 승강설비,대변기,소변기,일반사항,장애인전용주차구역,주출입구 높이차이 제거,주출입구 접근로,출입구(문),해당시설 층수"
101,20101,37.519653547188916,126.88904810723285,EEU동신타워,bank,서울특별시 영등포구 선유로  63,"계단 또는 승강설비,대변기,일반사항,장애인전용주차구역,주출입구 높이차이 제거,주출입구 접근로,출입구(문),해당시설 층수"
102,20102,37.52478988210779,127.04413311621525,EMPRESS 빌딩,restaurant,서울특별시 강남구 도산대로67길 13-3,"장애인전용주차구역,주출입구 높이차이 제거,주출입구 접근로,출입구(문)"
103,20103,37.65350685585031,127.05015632221387,EQ오피스텔,bank,서울특별시 도봉구 마들로11길 57,"계단 또는 승강설비,대변기,장애인전용주차구역,주출입구 높이차이 제거,주출입구 접근로,출입구(문),해당시설 층수"
104,20104,37.558874980096725,126.93668339926259,ERROR 29,restaurant,서울특별시 서대문구 연세로  37,"장애인전용주차구역,주출입구 높이차이 제거,주출입구 접근로,출입구(문)"
105,20105,37.550660315458146,127.05082516626221,ESA리버하우스오피스텔,bank,서울특별시 성동구 광나루로 190,"계단 또는 승강설비,대변기,일반사항,장애인전용주차구역,주출입구 높이차이 제거,주출입구 접근로,출입구(문),해당시설 층수"
106,20106,37.55880477558276,126.94028253241964,ESPRIT빌딩,education/job,서울특별시 서대문구 명물길 74,"계단 또는 승강설비,대변기,소변기,장애인전용주차구역,주출입구 높이차이 제거,주출입구 접근로,출입구(문),해당시설 층수"
107,20107,37.52209162348344,127.04095503442792,ES빌딩,restaurant,서울특별시 강남구 선릉로146길 15,"장애인전용주차구역,주출입구 높이차이 제거,주출입구 접근로,출입구(문)"
108,20108,37.47216130115661,126.997115023573,EXR타워,education/job,서울특별시 서초구 남부순환로  2245,"계단 또는 승강설비,대변기,소변기,일반사항,장애인전용주차구역,주출입구 높이차이 제거,주출입구 접근로,출입구(문),해당시설 층수"
109,20109,37.50050677620407,127.05118923040094,Em프라자,education/job,서울특별시 강남구 선릉로 344,"계단 또는 승강설비,대변기,소변기,일반사항,장애인전용주차구역,주출입구 높이차이 제거,주출입구 접근로,출입구(문),해당시설 층수"
110,20110,37.533299594064395,126.95764947984927,E테크벨리,bank,서울특별시 용산구 원효로 128,"계단 또는 승강설비,대변기,복도,일반사항,주출입구 높이차이 제거,주출입구 접근로,출입구(문),해당시설 층수"
111,20111,37.56693859287416,126.98413971327712,FERRUM TOWER,bank,서울특별시 중구 을지로5길 19,"계단 또는 승강설비,대변기,복도,일반사항,주출입구 높이차이 제거,주출입구 접근로,출입구(문),해당시설 층수"
112,20112,37.496034486126725,127.0290715422114,FINE TOWER,hospital,서울특별시 강남구 강남대로  372,"계단 또는 승강설비,대변기,일반사항,장애인전용주차구역,주출입구 높이차이 제거,주출입구 접근로,출입구(문),해당시설 층수"
113,20113,37.5650904347988,127.00946703976057,FIN TOWER,bank,서울특별시 중구 을지로 284-2,"계단 또는 승강설비,대변기,복도,일반사항,주출입구 높이차이 제거,주출입구 접근로,출입구(문),해당시설 층수"
114,20114,37.57312329979732,126.98633448373072,FIRASER SUITES,tourist hotel,서울특별시 종로구 인사동4길 1,"객실 및 침실,경보 및 피난설비,계단 또는 승강설비,관람석 및 열람석,대변기,복도,세면대,소변기,일반사항,주출입구 높이차이 제거,주출입구 접근로,출입구(문),해당시설 층수"
115,20115,37.527483357754065,127.04996321667441,FNC ENTERTAINMENT,bank,서울특별시 강남구 도산대로85길 46,"계단 또는 승강설비,대변기,일반사항,장애인전용주차구역,주출입구 높이차이 제거,주출입구 접근로,출입구(문),해당시설 층수"
116,20116,37.495409823872926,127.01640151468357,G-five CENTRAL,education/job,서울특별시 서초구 서초중앙로24길  27,"계단 또는 승강설비,대변기,소변기,일반사항,장애인전용주차구역,주출입구 높이차이 제거,주출입구 접근로,출입구(문),해당시설 층수"
117,20117,37.492848163426736,126.99110295708881,GASTRO PUB,restaurant,서울특별시 서초구 동광로  78,"장애인전용주차구역,주출입구 높이차이 제거,주출입구 접근로,출입구(문)"
118,20118,37.541599974593055,127.13371445189489,GDA,education/job,서울특별시 강동구 성안로 ,"계단 또는 승강설비,대변기,소변기,장애인전용주차구역,주출입구 높이차이 제거,주출입구 접근로,출입구(문),해당시설 층수"
119,20119,37.529029851189186,127.11607940799975,GKI스쿨,education/job,서울특별시 송파구 토성로 58,"계단 또는 승강설비,대변기,소변기,장애인전용주차구역,주출입구 높이차이 제거,주출입구 접근로,출입구(문),해당시설 층수"
120,20120,37.51125356402224,127.12444437795227,GL빌딩,education/job,서울특별시 송파구 위례성대로16길 ,"계단 또는 승강설비,대변기,소변기,일반사항,장애인전용주차구역,주출입구 높이차이 제거,주출입구 접근로,출입구(문),해당시설 층수"
121,20121,37.53024664616338,127.12102303957626,GMF빌딩,hospital,서울특별시 강동구 올림픽로  546,"객실 및 침실,경보 및 피난설비,계단 또는 승강설비,대변기,세면대,소변기,유도 및 안내 설비,일반사항,장애인전용주차구역,점자블록,주출입구 높이차이 제거,주출입구 접근로,출입구(문),해당시설 층수"
122,20122,37.53317889408077,126.89644550908508,GM대우,public parking,서울특별시 영등포구 선유동2로  51,"장애인전용주차구역,주출입구 높이차이 제거,주출입구 접근로"
123,20123,37.47945338481597,126.90453328755413,GREEN HILL,bank,서울특별시 금천구 독산로108길9 (독산동),"계단 또는 승강설비,대변기,복도,일반사항,장애인전용주차구역,주출입구 높이차이 제거,주출입구 접근로,출입구(문),해당시설 층수"
124,20124,37.56852091111456,127.07853791940997,GRUBIG ,bank,서울특별시 광진구 동일로  427,"계단 또는 승강설비,대변기,일반사항,장애인전용주차구역,주출입구 높이차이 제거,주출입구 접근로,출입구(문),해당시설 층수"
125,20125,37.493271805345344,127.02156651753235,GS25 서초아남점,restaurant,서울특별시 서초구 서초대로64길 55,"장애인전용주차구역,주출입구 높이차이 제거,주출입구 접근로,출입구(문)"
126,20126,37.52081042015416,126.88903281969736,GS강서타워,bank,서울특별시 영등포구 선유로  75,"계단 또는 승강설비,대변기,일반사항,장애인전용주차구역,주출입구 높이차이 제거,주출입구 접근로,출입구(문),해당시설 층수"
127,20127,37.5835025812081,126.96716741375066,GS건설연구소 ,education/job,서울특별시 종로구 필운대로 84,"계단 또는 승강설비,대변기,소변기,일반사항,장애인전용주차구역,주출입구 높이차이 제거,주출입구 접근로,출입구(문),해당시설 층수"
128,20128,37.567979744855336,126.81003621526212,GS슈퍼마,shopping/mart,서울특별시 강서구 초원로  37,"주출입구 높이차이 제거,주출입구 접근로,출입구(문)"
129,20129,37.54808940655935,127.13491198249956,GS 슈퍼마켓,shopping/mart,서울특별시 강동구 구천면로  317,"주출입구 높이차이 제거,주출입구 접근로,출입구(문)"
130,20130,37.66407331544191,127.0653915331354,GS슈퍼상계점,shopping,서울특별시 노원구 한글비석로 471,"대변기,비치용품,일반사항,장애인전용주차구역,주출입구 높이차이 제거,주출입구 접근로,출입구(문),해당시설 층수"
131,20131,37.48497093816523,126.93630712134441,GS항외과의원,hospital,서울특별시 관악구 남부순환로 1669,"계단 또는 승강설비,대변기,일반사항,장애인전용주차구역,주출입구 높이차이 제거,주출입구 접근로,출입구(문),해당시설 층수"
132,20132,37.53648375790163,127.12582592485859,G라이트빌딩,bank,서울특별시 강동구 천호옛길 88,"계단 또는 승강설비,대변기,일반사항,장애인전용주차구역,주출입구 높이차이 제거,주출입구 접근로,출입구(문),해당시설 층수"
133,20133,37.55102125559259,127.1395616234801,G 마트,shopping/mart,서울특별시 강동구 구천면로 365-8,"주출입구 높이차이 제거,주출입구 접근로,출입구(문)"
134,20134,37.4997768300974,127.06267860195288,H&DE 빌딩,hospital,서울특별시 강남구 도곡로  515,"계단 또는 승강설비,대변기,일반사항,장애인전용주차구역,주출입구 높이차이 제거,주출입구 접근로,출입구(문),해당시설 층수"
135,20135,37.527851323590205,127.03950557281976,H&M,shopping/mart,서울특별시 강남구 압구정로 342,"주출입구 높이차이 제거,주출입구 접근로,출입구(문)"
136,20136,37.52063961693658,127.03975516075117,H&S 타워,bank,서울특별시 강남구 선릉로 743,"계단 또는 승강설비,대변기,일반사항,장애인전용주차구역,주출입구 높이차이 제거,주출입구 접근로,출입구(문),해당시설 층수"
137,20137,37.50127303842362,126.88902102675642,HANASAINT.STONE,bank,서울특별시 구로구 구로중앙로28다길 16,"계단 또는 승강설비,대변기,일반사항,장애인전용주차구역,주출입구 높이차이 제거,주출입구 접근로,출입구(문),해당시설 층수"
138,20138,37.49931621579071,127.03476343206043,HB타워,bank,서울특별시 강남구 논현로87길 25,"계단 또는 승강설비,대변기,일반사항,장애인전용주차구역,주출입구 높이차이 제거,주출입구 접근로,출입구(문),해당시설 층수"
139,20139,37.454101020893326,126.89838556271785,HEY NEST,bank,서울특별시 금천구 금하로5길  13,"계단 또는 승강설비,대변기,장애인전용주차구역,주출입구 높이차이 제거,주출입구 접근로,출입구(문),해당시설 층수"
140,20140,37.57811066092836,127.06098269490262,HK마트,shopping/mart,서울특별시 동대문구 사가정로 144,"주출입구 높이차이 제거,주출입구 접근로,출입구(문)"
141,20141,37.51159582112163,127.03227624576813,HL의원(선기빌딩),hospital,서울특별시 강남구 논현로 648,"계단 또는 승강설비,대변기,장애인전용주차구역,주출입구 높이차이 제거,주출입구 접근로,출입구(문),해당시설 층수"
142,20142,37.506206157316974,127.02411270290506,HM타워,hospital,서울특별시 강남구 강남대로492,"계단 또는 승강설비,대변기,일반사항,장애인전용주차구역,주출입구 높이차이 제거,주출입구 접근로,출입구(문),해당시설 층수"
143,20143,37.519602526371926,127.02290890005546,HOLLISER,shopping/mart,서울특별시 강남구 도산대로13길 25,"주출입구 높이차이 제거,주출입구 접근로,출입구(문)"
144,20144,37.53590690330117,126.90037914036385,HRD교육센터,education/job,서울특별시 영등포구 선유로54길  17,"계단 또는 승강설비,대변기,소변기,일반사항,장애인전용주차구역,주출입구 높이차이 제거,주출입구 접근로,출입구(문),해당시설 층수"
145,20145,37.522402566166306,127.0379687461197,HS빌딩,bank,서울특별시 강남구 도산대로 328,"계단 또는 승강설비,대변기,일반사항,장애인전용주차구역,주출입구 높이차이 제거,주출입구 접근로,출입구(문),해당시설 층수"
146,20146,37.55773134089676,126.84831142678014,Hizen 학원,bank,서울특별시 강서구 공항대로  365,"계단 또는 승강설비,대변기,장애인전용주차구역,주출입구 높이차이 제거,주출입구 접근로,출입구(문),해당시설 층수"
147,20147,37.50474423623602,127.05316000717131,H타워,education/job,서울특별시 강남구 테헤란로70길 12,"계단 또는 승강설비,대변기,소변기,일반사항,장애인전용주차구역,주출입구 높이차이 제거,주출입구 접근로,출입구(문),해당시설 층수"
148,20148,37.5350657306951,127.00705556950724,IBK기업은행고객센터,bank,서울특별시 용산구 한남대로 72,"계단 또는 승강설비,대변기,복도,일반사항,주출입구 높이차이 제거,주출입구 접근로,출입구(문),해당시설 층수"
149,20149,37.484153670371455,127.036077013227,IBTOWER,bank,서울특별시 서초구 남부순환로350길 19-7,"계단 또는 승강설비,대변기,장애인전용주차구역,주출입구 높이차이 제거,주출입구 접근로,출입구(문),해당시설 층수"
150,20150,37.647240347351044,127.0253548033339,IBT아카데미,education/job,서울특별시 도봉구 노해로 137,"계단 또는 승강설비,대변기,소변기,장애인전용주차구역,주출입구 높이차이 제거,주출입구 접근로,출입구(문),해당시설 층수"
151,20151,37.52130239611749,127.02852930892905,ICL빌딩,education/job,서울특별시 강남구 논현로 816,"계단 또는 승강설비,대변기,소변기,일반사항,장애인전용주차구역,주출입구 높이차이 제거,주출입구 접근로,출입구(문),해당시설 층수"
152,20152,37.528780012163836,126.9070408405707,ICO오피스텔,bank,서울특별시 영등포구 버드나루로23길  23-6,"계단 또는 승강설비,대변기,일반사항,장애인전용주차구역,주출입구 높이차이 제거,주출입구 접근로,출입구(문),해당시설 층수"
153,20153,37.517473164929456,127.01951024496526,ICT타워,bank,서울특별시 강남구 강남대로  624,"계단 또는 승강설비,대변기,일반사항,장애인전용주차구역,주출입구 높이차이 제거,주출입구 접근로,출입구(문),해당시설 층수"
154,20154,37.51747311294707,127.01982244506483,ICT타워 별관,bank,서울특별시 강남구 도산대로1길  13,"계단 또는 승강설비,대변기,일반사항,장애인전용주차구역,주출입구 높이차이 제거,주출입구 접근로,출입구(문),해당시설 층수"
155,20155,37.501033796350825,127.03964976707266,IMI호텔,hotel,서울특별시 강남구 테헤란로28길 3-12,"객실 및 침실,관람석 및 열람석,주출입구 높이차이 제거,주출입구 접근로,출입구(문)"
156,20156,37.48679662027596,127.01295778934914,IMT호텔,hotel,서울특별시 서초구 효령로53길 49,"객실 및 침실,관람석 및 열람석,주출입구 높이차이 제거,주출입구 접근로,출입구(문)"
157,20157,37.50071444978869,127.0351938249212,IN THE F 빌딩,bank,서울특별시 강남구 테헤란로144길 21,"계단 또는 승강설비,대변기,일반사항,장애인전용주차구역,주출입구 높이차이 제거,주출입구 접근로,출입구(문),해당시설 층수"
158,20158,37.48119618600819,126.94835361105235,IP TOWER,bank,서울특별시 관악구 청룡1길  37,"계단 또는 승강설비,대변기,장애인전용주차구역,주출입구 높이차이 제거,주출입구 접근로,출입구(문),해당시설 층수"
159,20159,37.52466798854821,127.0307343014062,ISA빌딩,bank,서울특별시 강남구 압구정로34길  51,"계단 또는 승강설비,대변기,일반사항,장애인전용주차구역,주출입구 높이차이 제거,주출입구 접근로,출입구(문),해당시설 층수"
160,20160,37.47892160740416,126.88602866349629,IT미래타워,factory,서울특별시 금천구 디지털로9길 33,"대변기,소변기,일반사항,장애인전용주차구역,주출입구 높이차이 제거,주출입구 접근로,출입구(문)"
161,20161,37.49509524433247,127.12242731594377,IT벤쳐타워,bank,서울특별시 송파구 중대로 135,"대변기,장애인전용주차구역,주출입구 높이차이 제거,주출입구 접근로,출입구(문),해당시설 층수"
162,20162,37.477042780278516,127.03648963707457,IT직업전문학교,education/job,서울특별시 서초구 바우뫼로 145-5,"계단 또는 승강설비,대변기,소변기,일반사항,장애인전용주차구역,주출입구 높이차이 제거,주출입구 접근로,출입구(문),해당시설 층수"
163,20163,37.477659773229306,126.88192891225492,IT캐슬2차,factory,서울특별시 금천구 가산디지털1로 137,"대변기,소변기,일반사항,장애인전용주차구역,주출입구 높이차이 제거,주출입구 접근로,출입구(문)"
164,20164,37.473886215328456,126.88545749295258,IT프리미어타워,factory,서울특별시 금천구 가산디지털1로  88,"대변기,소변기,일반사항,장애인전용주차구역,주출입구 높이차이 제거,주출입구 접근로,출입구(문)"
165,20165,37.554833922388916,126.85129146864897,I park(상가),bank,서울특별시 강서구 화곡로  347,"계단 또는 승강설비,대변기,일반사항,장애인전용주차구역,주출입구 높이차이 제거,주출입구 접근로,출입구(문),해당시설 층수"
166,20166,37.58392867776756,127.02970799916469,J&H빌딩,restaurant,서울특별시 성북구 인촌로24길 51,"장애인전용주차구역,주출입구 높이차이 제거,주출입구 접근로,출입구(문)"
167,20167,37.48225106521185,127.06147906052006,J.J빌딩,education/job,서울특별시 강남구 선릉로 26,"계단 또는 승강설비,대변기,소변기,장애인전용주차구역,주출입구 높이차이 제거,주출입구 접근로,출입구(문),해당시설 층수"
168,20168,37.51502880698177,127.06311665751272,JBK TOWER 빌딩,bank,서울특별시 강남구 봉은사로 619,"계단 또는 승강설비,대변기,장애인전용주차구역,주출입구 높이차이 제거,주출입구 접근로,출입구(문),해당시설 층수"
169,20169,37.48191218821725,126.88158303434446,JEI PLATZ,factory,서울특별시 금천구 가산디지털1로  186,"대변기,소변기,일반사항,장애인전용주차구역,주출입구 높이차이 제거,주출입구 접근로,출입구(문)"
170,20170,37.522966715341866,127.04287862536417,J II 빌딩,convenience store/bakery,서울특별시 강남구 선릉로148길  41,"장애인전용주차구역,주출입구 높이차이 제거,주출입구 접근로,출입구(문)"
171,20171,37.56177185763962,127.05770517993435,JJ호텔,tourist hotel,서울특별시 성동구 자동차시장1길 2,"객실 및 침실,경보 및 피난설비,계단 또는 승강설비,관람석 및 열람석,대변기,세면대,소변기,일반사항,장애인전용주차구역,주출입구 높이차이 제거,주출입구 접근로,출입구(문),해당시설 층수"
172,20172,37.57068373572671,127.07221024863382,JK빌딩,bank,서울특별시 동대문구 장한로24길  21,"계단 또는 승강설비,대변기,일반사항,장애인전용주차구역,주출입구 높이차이 제거,주출입구 접근로,출입구(문),해당시설 층수"
173,20173,37.48258260682533,126.89704451450376,JNK디지털타워,factory,서울특별시 구로구 디지털로26길 111,"대변기,소변기,일반사항,장애인전용주차구역,주출입구 높이차이 제거,주출입구 접근로,출입구(문)"
174,20174,37.51532559090773,127.03366235191531,JOIN빌딩,bank,서울특별시 강남구 학동로  223-6,"계단 또는 승강설비,대변기,장애인전용주차구역,주출입구 높이차이 제거,주출입구 접근로,출입구(문),해당시설 층수"
175,20175,37.49222795102083,127.03172061272919,J PLUS 타워,bank,서울특별시 강남구 역삼로2길  17,"계단 또는 승강설비,대변기,일반사항,장애인전용주차구역,주출입구 높이차이 제거,주출입구 접근로,출입구(문),해당시설 층수"
176,20176,37.4997893596132,127.03111765241216, JS TOWER,bank,서울특별시 강남구 테헤란로7길 6,"계단 또는 승강설비,대변기,장애인전용주차구역,주출입구 높이차이 제거,주출입구 접근로,출입구(문),해당시설 층수"
177,20177,37.574324130615096,127.0715934171877,JS앤드F,bank,서울특별시 동대문구 장한로 154,"계단 또는 승강설비,대변기,장애인전용주차구역,주출입구 높이차이 제거,주출입구 접근로,출입구(문),해당시설 층수"
178,20178,37.48374080417056,127.00850701887583,JY타워,restaurant,서울특별시 서초구 효령로  223,"장애인전용주차구역,주출입구 높이차이 제거,주출입구 접근로,출입구(문)"
179,20179,37.511559276604785,127.07917945929928,J타워,bank,서울특별시 송파구 올림픽로  76,"계단 또는 승강설비,대변기,장애인전용주차구역,주출입구 높이차이 제거,주출입구 접근로,출입구(문),해당시설 층수"
180,20180,37.5394769686146,127.08290668645039,K&S빌딩,hospital,서울특별시 광진구 자양로 131,"계단 또는 승강설비,대변기,일반사항,장애인전용주차구역,주출입구 높이차이 제거,주출입구 접근로,출입구(문),해당시설 층수"
181,20181,37.54275434439375,127.06327128203031,K-2타워,stadium,서울특별시 성동구 성수이로22길   64,"소변기,장애인전용주차구역,주출입구 높이차이 제거,주출입구 접근로,출입구(문)"
182,20182,37.5171309002693,127.01879074149018,K - TOWER,hospital,서울특별시 서초구 강남대로 621,"계단 또는 승강설비,대변기,일반사항,장애인전용주차구역,주출입구 높이차이 제거,주출입구 접근로,출입구(문),해당시설 층수"
183,20183,37.562580647583125,127.03569827983894,K-타워,bank,서울특별시 성동구 고산자로 255,"계단 또는 승강설비,대변기,장애인전용주차구역,주출입구 높이차이 제거,주출입구 접근로,출입구(문),해당시설 층수"
184,20184,37.537045102082665,127.123242625459,K.H빌딩,bank,서울특별시 강동구 올림픽로 624,"계단 또는 승강설비,대변기,일반사항,장애인전용주차구역,주출입구 높이차이 제거,주출입구 접근로,출입구(문),해당시설 층수"
185,20185,37.47963321214451,126.95112236887445,K.S텔,hotel,서울특별시 관악구 관악로15길 23-15,"객실 및 침실,관람석 및 열람석,주출입구 높이차이 제거,주출입구 접근로,출입구(문)"
186,20186,37.54821336790331,127.12713116313661,K.TOWER,education/job,서울특별시 강동구 올림픽로  752,"계단 또는 승강설비,대변기,소변기,일반사항,장애인전용주차구역,주출입구 높이차이 제거,주출입구 접근로,출입구(문),해당시설 층수"
187,20187,37.57149756908991,126.81709985961345,K.W.E,bank,서울특별시 강서구 방화대로 343,"계단 또는 승강설비,대변기,일반사항,장애인전용주차구역,주출입구 높이차이 제거,주출입구 접근로,출입구(문),해당시설 층수"
188,20188,37.44969271964744,126.90200796748651,K2,shopping/mart,서울특별시 금천구 시흥대로  177,"주출입구 높이차이 제거,주출입구 접근로,출입구(문)"
189,20189,37.65576989233418,126.94930272646124,K2,shopping/mart,서울특별시 은평구 대서문길  43-11,"주출입구 높이차이 제거,주출입구 접근로,출입구(문)"
190,20190,37.464692218418016,127.03486495245912,KAGE영재원,education/job,서울특별시 서초구 매헌로8길 3,"계단 또는 승강설비,대변기,소변기,장애인전용주차구역,주출입구 높이차이 제거,주출입구 접근로,출입구(문),해당시설 층수"
191,20191,37.548427753386555,126.9149242563604,KAO KAO,bank,서울특별시 마포구 독막로 14,"계단 또는 승강설비,대변기,장애인전용주차구역,주출입구 높이차이 제거,주출입구 접근로,출입구(문),해당시설 층수"
192,20192,37.51644933090453,127.02121574413569,KBL빌딩,hospital,서울특별시 강남구 도산대로 114,"계단 또는 승강설비,대변기,일반사항,장애인전용주차구역,주출입구 높이차이 제거,주출입구 접근로,출입구(문),해당시설 층수"
193,20193,37.52596890020251,126.9167191018313,KBS방송공사,broadcasting station,서울특별시 영등포구 여의공원로 13,"계단 또는 승강설비,대변기,일반사항,장애인전용주차구역,주출입구 높이차이 제거,주출입구 접근로,출입구(문),해당시설 층수"
194,20194,37.518711488257054,126.92941898842825,KBS방송국 서울별관,concert hall,서울특별시 영등포구 여의대방로 359,"객실 및 침실,경보 및 피난설비,계단 또는 승강설비,관람석 및 열람석,대변기,매표소, 판매기, 음료대,비치용품,세면대,소변기,유도 및 안내 설비,장애인전용주차구역,점자블록,접수대 및 작업대,주출입구 높이차이 제거,주출입구 접근로,출입구(문),해당시설 층수"
195,20195,37.5518913644199,127.1286810205599,KB오피스텔,bank,서울특별시 강동구 고덕로8길 66,"계단 또는 승강설비,대변기,장애인전용주차구역,주출입구 높이차이 제거,주출입구 접근로,출입구(문),해당시설 층수"
196,20196,37.54826943023701,126.87818737615731,KCC 오토 타워,bank,서울특별시 강서구 공항대로 665,"계단 또는 승강설비,대변기,일반사항,장애인전용주차구역,주출입구 높이차이 제거,주출입구 접근로,출입구(문),해당시설 층수"
197,20197,37.529558000558666,126.9212585811618,KCC파크타운,bank,서울특별시 영등포구 국회대로72길 17,"계단 또는 승강설비,대변기,일반사항,장애인전용주차구역,주출입구 높이차이 제거,주출입구 접근로,출입구(문),해당시설 층수"
198,20198,37.5551821916053,126.96610696306576,KCC파크타운,bank,서울특별시 중구 만리재로 185,"계단 또는 승강설비,대변기,복도,일반사항,주출입구 높이차이 제거,주출입구 접근로,출입구(문),해당시설 층수"
199,20199,37.55785463072355,126.84889969671976,KGIT강서센터(한독미디어),university,서울특별시 강서구 화곡로61길 ,"객실 및 침실,경보 및 피난설비,계단 또는 승강설비,대변기,소변기,유도 및 안내 설비,일반사항,장애인전용주차구역,점자블록,주출입구 높이차이 제거,주출입구 접근로,출입구(문),해당시설 층수"
200,20200,37.5813412315281,126.88339562974683,KGIT한독산학협동단지(C-4Block),bank,서울특별시 마포구 월드컵북로 442,"계단 또는 승강설비,대변기,일반사항,장애인전용주차구역,주출입구 높이차이 제거,주출입구 접근로,출입구(문),해당시설 층수"
201,20201,37.48223033295346,127.01273992010954,KH바텍사옥,concert hall,서울특별시 서초구 반포대로 18,"객실 및 침실,경보 및 피난설비,계단 또는 승강설비,관람석 및 열람석,대변기,매표소, 판매기, 음료대,비치용품,세면대,소변기,유도 및 안내 설비,장애인전용주차구역,점자블록,접수대 및 작업대,주출입구 높이차이 제거,주출입구 접근로,출입구(문),해당시설 층수"
202,20202,37.51817182797172,127.02241527238738,KI BLDG(KI빌딩),bank,서울특별시 강남구 도산대로11길  11,"계단 또는 승강설비,대변기,일반사항,장애인전용주차구역,주출입구 높이차이 제거,주출입구 접근로,출입구(문),해당시설 층수"
203,20203,37.52255431315024,127.0223803838623,KMPLAY,shopping/mart,서울특별시 강남구 압구정로12길 22,"주출입구 높이차이 제거,주출입구 접근로,출입구(문)"
204,20204,37.496985347203356,126.89019440955317,KM타워,bank,서울특별시 구로구 가마산로25길 -,"계단 또는 승강설비,대변기,장애인전용주차구역,주출입구 높이차이 제거,주출입구 접근로,출입구(문),해당시설 층수"
205,20205,37.527335702125086,126.90366228351054,KNK디지털타워,factory,서울특별시 영등포구 영신로  224,"대변기,소변기,일반사항,장애인전용주차구역,주출입구 높이차이 제거,주출입구 접근로,출입구(문)"
206,20206,37.52184781061371,127.0229865098942,KOON WITH A VIEW,shopping/mart,서울특별시 강남구 압구정로12길  33,"주출입구 높이차이 제거,주출입구 접근로,출입구(문)"
207,20207,37.54679465936056,126.9526130040856,KPX빌딩 신축공사 업무시설(사무소) ,bank,서울특별시 마포구 마포대로  137,"계단 또는 승강설비,대변기,일반사항,장애인전용주차구역,주출입구 높이차이 제거,주출입구 접근로,출입구(문),해당시설 층수"
208,20208,37.48338707748944,127.06003728754283,KR-TOWER,bank,서울특별시 강남구 선릉로  42,"계단 또는 승강설비,대변기,일반사항,장애인전용주차구역,주출입구 높이차이 제거,주출입구 접근로,출입구(문),해당시설 층수"
209,20209,37.50931792175865,127.04394303961554,KS병원,hospital,서울특별시 강남구 선릉로 571,"객실 및 침실,경보 및 피난설비,계단 또는 승강설비,대변기,세면대,소변기,유도 및 안내 설비,장애인전용주차구역,점자블록,주출입구 높이차이 제거,주출입구 접근로,출입구(문),해당시설 층수"
210,20210,37.49881829869848,127.0366223652186,KS빌딩,restaurant,서울특별시 강남구 역삼로17길  64,"장애인전용주차구역,주출입구 높이차이 제거,주출입구 접근로,출입구(문)"
211,20211,37.55474276581956,127.15513200372567,KT,bank,서울특별시 강동구 동남로75길  24,"계단 또는 승강설비,대변기,일반사항,장애인전용주차구역,주출입구 높이차이 제거,주출입구 접근로,출입구(문),해당시설 층수"
212,20212,37.56459200798147,126.96543263225932,KT&G,bank,서울특별시 서대문구 충정로  64,"계단 또는 승강설비,대변기,일반사항,장애인전용주차구역,주출입구 높이차이 제거,주출입구 접근로,출입구(문),해당시설 층수"
213,20213,37.64589070698725,127.03256088850918,KT&G,bank,서울특별시 도봉구 도봉로  447,"계단 또는 승강설비,대변기,일반사항,장애인전용주차구역,주출입구 높이차이 제거,주출입구 접근로,출입구(문),해당시설 층수"
214,20214,37.482132922161725,127.04347034089604,KT&G 강남지사,bank,서울특별시 강남구 논현로28길  4,"계단 또는 승강설비,대변기,일반사항,장애인전용주차구역,주출입구 높이차이 제거,주출입구 접근로,출입구(문),해당시설 층수"
215,20215,37.49821082182948,127.03102200437057,KT&G대치동빌딩,bank,서울특별시 강남구 테헤란로8길 8,"계단 또는 승강설비,대변기,일반사항,장애인전용주차구역,주출입구 높이차이 제거,주출입구 접근로,출입구(문),해당시설 층수"
216,20216,37.51575258689854,126.88754721320872,KT&G 영등포지사,bank,서울특별시 영등포구 선유로   11,"계단 또는 승강설비,대변기,일반사항,장애인전용주차구역,주출입구 높이차이 제거,주출입구 접근로,출입구(문),해당시설 층수"
217,20217,37.5489556189265,126.86940930062185,KTCS빌딩,bank,서울특별시 강서구 공항대로 575,"계단 또는 승강설비,대변기,장애인전용주차구역,주출입구 높이차이 제거,주출입구 접근로,출입구(문),해당시설 층수"
218,20218,37.51319658924431,126.94119662011325,K T F,bank,서울특별시 동작구 노량진로 138,"계단 또는 승강설비,대변기,일반사항,장애인전용주차구역,주출입구 높이차이 제거,주출입구 접근로,출입구(문),해당시설 층수"
219,20219,37.56984295696779,126.98110999560605,KTIS,bank,서울특별시 종로구 종로  34,"계단 또는 승강설비,대변기,복도,일반사항,주출입구 높이차이 제거,주출입구 접근로,출입구(문),해당시설 층수"
220,20220,37.624653729850344,127.02850079462111,KT 강북지사,bank,서울특별시 강북구 솔매로50길 43,"계단 또는 승강설비,대변기,일반사항,장애인전용주차구역,주출입구 높이차이 제거,주출입구 접근로,출입구(문),해당시설 층수"
221,20221,37.48661066274607,126.8576501423777,KT개봉지점,bank,서울특별시 구로구 개봉로6길  12-5,"계단 또는 승강설비,대변기,일반사항,장애인전용주차구역,주출입구 높이차이 제거,주출입구 접근로,출입구(문),해당시설 층수"
222,20222,37.57214892697915,126.97779042950376,KT광화문빌딩,exhibition center,서울특별시 종로구 세종대로 178,"경보 및 피난설비,계단 또는 승강설비,대변기,비치용품,일반사항,장애인전용주차구역,주출입구 높이차이 제거,주출입구 접근로,출입구(문),해당시설 층수"
223,20223,37.627056569855576,127.0727949090316,KT 교환전송과,education/job,서울특별시 노원구 동일로 1082,"계단 또는 승강설비,대변기,소변기,일반사항,장애인전용주차구역,주출입구 높이차이 제거,주출입구 접근로,출입구(문),해당시설 층수"
224,20224,37.51148832433055,126.93442511703923,KT동작전화국 구내식당,telecommunication office,서울특별시 동작구 등용로4길 139,"대변기,비치용품,일반사항,장애인전용주차구역,주출입구 높이차이 제거,주출입구 접근로,출입구(문)"
225,20225,37.49889940982137,126.99231454213603,KT반포지사,bank,서울특별시 서초구 사평대로 73,"계단 또는 승강설비,대변기,일반사항,장애인전용주차구역,주출입구 높이차이 제거,주출입구 접근로,출입구(문),해당시설 층수"
226,20226,37.48216969511211,127.00364062031261,KT서초지사,telecommunication office,서울특별시 서초구 효령로 176,"대변기,비치용품,일반사항,장애인전용주차구역,주출입구 높이차이 제거,주출입구 접근로,출입구(문)"
227,20227,37.58090329622015,127.02050946409484,KT성북지점,telecommunication office,서울특별시 성북구 보문로13다길  28,"대변기,비치용품,장애인전용주차구역,주출입구 높이차이 제거,주출입구 접근로,출입구(문)"
228,20228,37.55799159335297,126.9237910018371,KT신촌지사(신촌전화국),telecommunication office,서울특별시 마포구 월드컵북로2길 65,"대변기,비치용품,일반사항,장애인전용주차구역,주출입구 높이차이 제거,주출입구 접근로,출입구(문)"
229,20229,37.4859759224324,127.04036996866975,KT 양재지점,telecommunication office,서울특별시 강남구 남부순환로 2653,"대변기,비치용품,일반사항,장애인전용주차구역,주출입구 높이차이 제거,주출입구 접근로,출입구(문)"
230,20230,37.54764556834682,126.94513475015044,KT 업무시설(사무소),bank,서울특별시 마포구 숭문길  13,"계단 또는 승강설비,대변기,일반사항,장애인전용주차구역,주출입구 높이차이 제거,주출입구 접근로,출입구(문),해당시설 층수"
231,20231,37.521620543755056,126.91914022574913,KT여의도지점,restaurant,서울특별시 영등포구 여의대로 14,"장애인전용주차구역,주출입구 높이차이 제거,주출입구 접근로,출입구(문)"
232,20232,37.532190088037794,126.97140318700946,KT용산지점,bank,서울특별시 용산구 한강대로  148,"계단 또는 승강설비,대변기,복도,일반사항,주출입구 높이차이 제거,주출입구 접근로,출입구(문),해당시설 층수"
233,20233,37.603103651123654,127.03594865553318,KT월곡지점,bank,서울특별시 성북구 화랑로 35,"계단 또는 승강설비,대변기,일반사항,장애인전용주차구역,주출입구 높이차이 제거,주출입구 접근로,출입구(문),해당시설 층수"
234,20234,37.53544064495561,126.95841764225278,KT자산개발센터,bank,서울특별시 용산구 원효로41길  33,"계단 또는 승강설비,대변기,복도,일반사항,주출입구 높이차이 제거,주출입구 접근로,출입구(문),해당시설 층수"
235,20235,37.59070290100945,127.07924964099162,KT중랑지점,telecommunication office,서울특별시 중랑구 봉우재로 54,"대변기,장애인전용주차구역,주출입구 높이차이 제거,주출입구 접근로,출입구(문)"
236,20236,37.58551719285367,127.04394250567684,KT청량리지점,bank,서울특별시 동대문구 홍릉로 58,"계단 또는 승강설비,대변기,장애인전용주차구역,주출입구 높이차이 제거,주출입구 접근로,출입구(문),해당시설 층수"
237,20237,37.50802478105205,127.05888980414879,K타워(용도변경),hospital,서울특별시 강남구 테헤란로  513,"계단 또는 승강설비,대변기,일반사항,장애인전용주차구역,주출입구 높이차이 제거,주출입구 접근로,출입구(문),해당시설 층수"
238,20238,37.50491430537485,127.05162653214967,L&B타워,bank,서울특별시 강남구 테헤란로 414,"계단 또는 승강설비,대변기,일반사항,장애인전용주차구역,주출입구 높이차이 제거,주출입구 접근로,출입구(문),해당시설 층수"
239,20239,37.55758225164169,127.03457318347165,LCI Kids Club,education/job,서울특별시 성동구 고산자로8길 5,"계단 또는 승강설비,대변기,소변기,일반사항,장애인전용주차구역,주출입구 높이차이 제거,주출입구 접근로,출입구(문),해당시설 층수"
240,20240,37.49414471446569,127.04466238845455,LCI 아카데미(키즈클럽 코리아),education/job,서울특별시 강남구 도곡로37길 5,"계단 또는 승강설비,대변기,소변기,장애인전용주차구역,주출입구 높이차이 제거,주출입구 접근로,출입구(문),해당시설 층수"
241,20241,37.58109593763453,126.88686935993266,LGCNS상암IT CENTER,bank,서울특별시 마포구 월드컵북로  424,"계단 또는 승강설비,대변기,일반사항,장애인전용주차구역,주출입구 높이차이 제거,주출입구 접근로,출입구(문),해당시설 층수"
242,20242,37.511046629724156,127.0369857548012,LG U+(KIDC),telecommunication office,서울특별시 강남구 언주로 616,"대변기,비치용품,장애인전용주차구역,주출입구 높이차이 제거,주출입구 접근로,출입구(문)"
243,20243,37.4679196594877,126.88726169158149,LG가산디지털센터,factory,서울특별시 금천구 가산디지털1로  18,"대변기,소변기,일반사항,장애인전용주차구역,주출입구 높이차이 제거,주출입구 접근로,출입구(문)"
244,20244,37.60257838724663,127.03280925933367,LG베스트,shopping/mart,서울특별시 성북구 종암로 142,"주출입구 높이차이 제거,주출입구 접근로,출입구(문)"
245,20245,37.54509932102195,127.14305394301255,LG베스트샵,shopping/mart,서울특별시 강동구 양재대로 1564,"주출입구 높이차이 제거,주출입구 접근로,출입구(문)"
246,20246,37.56676179524733,126.96608360672708,LG베스트샵,shopping/mart,서울특별시 은평구 통일로 7,"주출입구 높이차이 제거,주출입구 접근로,출입구(문)"
247,20247,37.57828343181894,126.91041632341866,LG베스트샵,shopping/mart,서울특별시 서대문구 응암로 58,"주출입구 높이차이 제거,주출입구 접근로,출입구(문)"
248,20248,37.60120737593969,126.92459852607836,LG베스트샵,shopping/mart,서울특별시 은평구 은평로 153,"주출입구 높이차이 제거,주출입구 접근로,출입구(문)"
249,20249,37.524162664147205,127.04445402479277,LG베스트샵(모바일서비스센터),bank,서울특별시 강남구 도산대로  443,"계단 또는 승강설비,대변기,일반사항,장애인전용주차구역,주출입구 높이차이 제거,주출입구 접근로,출입구(문),해당시설 층수"
250,20250,37.4881845357774,127.03055652480286,LG시스템,shopping/mart,서울특별시 서초구 남부순환로347길 88,"주출입구 높이차이 제거,주출입구 접근로,출입구(문)"
251,20251,37.50512934302953,127.03530899463289,LG아트센터,concert hall,서울특별시 강남구 논현로  548,"객실 및 침실,경보 및 피난설비,계단 또는 승강설비,관람석 및 열람석,대변기,매표소, 판매기, 음료대,비치용품,세면대,소변기,유도 및 안내 설비,장애인전용주차구역,점자블록,접수대 및 작업대,주출입구 높이차이 제거,주출입구 접근로,출입구(문),해당시설 층수"
252,20252,37.50426472993152,126.94646033012253,LG전자,shopping/mart,서울특별시 동작구 상도로 254,"주출입구 높이차이 제거,주출입구 접근로,출입구(문)"
253,20253,37.52995136386197,127.12078271679644,LG전자,shopping/mart,서울특별시 강동구 올림픽로 542,"주출입구 높이차이 제거,주출입구 접근로,출입구(문)"
254,20254,37.51945845944819,127.05528803124788,LG전자(청담점),shopping/mart,서울특별시 강남구 학동로 516,"주출입구 높이차이 제거,주출입구 접근로,출입구(문)"
255,20255,37.55085168422823,126.86651346109834,LG전자 강서서비스 센터,bank,서울특별시 강서구 공항대로  541,"계단 또는 승강설비,대변기,장애인전용주차구역,주출입구 높이차이 제거,주출입구 접근로,출입구(문),해당시설 층수"
256,20256,37.5068145349504,127.11987682360302,LG전자건물,education/job,서울특별시 송파구 오금로 235,"대변기,소변기,일반사항,장애인전용주차구역,주출입구 높이차이 제거,주출입구 접근로,출입구(문),해당시설 층수"
257,20257,37.53484898940477,127.14351860930982,LG전자베스트샵 길동사거리점,shopping/mart,서울특별시 강동구 천호대로 1193,"주출입구 높이차이 제거,주출입구 접근로,출입구(문)"
258,20258,37.5794753483073,127.03813356068976,LG전자베스트샵서비스센터,bank,서울특별시 동대문구 고산자로 442,"계단 또는 승강설비,대변기,일반사항,장애인전용주차구역,주출입구 높이차이 제거,주출입구 접근로,출입구(문),해당시설 층수"
259,20259,37.48160306670658,126.91130974118758,LG전자베스트샵 신림점,shopping/mart,서울특별시 관악구 남부순환로 1445,"주출입구 높이차이 제거,주출입구 접근로,출입구(문)"
260,20260,37.53484898940477,127.14351860930982,LG전자서비스센터 강동점,bank,서울특별시 강동구 천호대로 1193,"계단 또는 승강설비,대변기,장애인전용주차구역,주출입구 높이차이 제거,주출입구 접근로,출입구(문),해당시설 층수"
261,20261,37.52792683523221,126.92924287157821,LG 트윈타워 ,bank,서울특별시 영등포구 여의대로 128,"계단 또는 승강설비,대변기,일반사항,장애인전용주차구역,주출입구 높이차이 제거,주출입구 접근로,출입구(문),해당시설 층수"
262,20262,37.52875427069625,127.03318417631327,LG패션 서관,bank,서울특별시 강남구 압구정로  234,"계단 또는 승강설비,대변기,장애인전용주차구역,주출입구 높이차이 제거,주출입구 접근로,출입구(문),해당시설 층수"
263,20263,37.498745932843825,127.03753155517805,LG패션아울렛,shopping,서울특별시 강남구 논현로 427,"계단 또는 승강설비,대변기,비치용품,장애인전용주차구역,주출입구 높이차이 제거,주출입구 접근로,출입구(문),해당시설 층수"
264,20264,37.55611369387584,126.92344886429527,LG팰리스 빌딩 ,bank,서울특별시 마포구 양화로 156,"계단 또는 승강설비,대변기,일반사항,장애인전용주차구역,주출입구 높이차이 제거,주출입구 접근로,출입구(문),해당시설 층수"
265,20265,37.4948704521716,127.12371608172514,LG프라자,shopping/mart,서울특별시 송파구 중대로 142,"주출입구 높이차이 제거,주출입구 접근로,출입구(문)"
266,20266,37.52179577214641,126.85688196369257,LG하이프라자,shopping/mart,서울특별시 양천구 신월로  323,"주출입구 높이차이 제거,주출입구 접근로,출입구(문)"
267,20267,37.53739702214299,127.05976827917516,LG하이프라자,shopping/mart,서울특별시 성동구 뚝섬로  443,"주출입구 높이차이 제거,주출입구 접근로,출입구(문)"
268,20268,37.610291476473506,127.0305112771116,LG 하이프라자,shopping,서울특별시 강북구 도봉로 14,"계단 또는 승강설비,대변기,비치용품,장애인전용주차구역,주출입구 높이차이 제거,주출입구 접근로,출입구(문),해당시설 층수"
269,20269,37.50876086648319,127.10452962671542,LG하이프라자,shopping,서울특별시 송파구 송파대로 476,"계단 또는 승강설비,대변기,비치용품,일반사항,장애인전용주차구역,주출입구 높이차이 제거,주출입구 접근로,출입구(문),해당시설 층수"
270,20270,37.48160306670658,126.91130974118758,LG하이프라자난곡점,shopping/mart,서울특별시 관악구 남부순환로 1445,"주출입구 높이차이 제거,주출입구 접근로,출입구(문)"
271,20271,37.49160528541108,127.05800395665909,LH서울지역본부,government office building,서울특별시 강남구 선릉로 121-12,"객실 및 침실,경보 및 피난설비,계단 또는 승강설비,대변기,매표소, 판매기, 음료대,비치용품,세면대,소변기,유도 및 안내 설비,장애인전용주차구역,점자블록,접수대 및 작업대,주출입구 높이차이 제거,주출입구 접근로,출입구(문),해당시설 층수"
272,20272,37.54913863808177,126.91124788862305,LIG빌딩,bank,서울특별시 마포구 양화로 19,"계단 또는 승강설비,대변기,일반사항,장애인전용주차구역,주출입구 높이차이 제거,주출입구 접근로,출입구(문),해당시설 층수"
273,20273,37.4991985217382,127.0302624588644,LIG아트홀,concert hall,서울특별시 강남구 테헤란로  117,"객실 및 침실,경보 및 피난설비,계단 또는 승강설비,관람석 및 열람석,대변기,매표소, 판매기, 음료대,비치용품,세면대,소변기,유도 및 안내 설비,일반사항,장애인전용주차구역,점자블록,접수대 및 작업대,주출입구 높이차이 제거,주출입구 접근로,출입구(문),해당시설 층수"
274,20274,37.55070428566117,126.92373052254193,LK 빌딩 ,restaurant,서울특별시 마포구 와우산로18길  12,"장애인전용주차구역,주출입구 높이차이 제거,주출입구 접근로,출입구(문)"
275,20275,37.52754808899555,126.89094154400429,LK사옥,bank,서울특별시 영등포구 선유로  151,"계단 또는 승강설비,대변기,일반사항,장애인전용주차구역,주출입구 높이차이 제거,주출입구 접근로,출입구(문),해당시설 층수"
276,20276,37.52819887635059,127.0345007887816,LLG패션 별관,bank,서울특별시 강남구 언주로174길 8,"계단 또는 승강설비,대변기,장애인전용주차구역,주출입구 높이차이 제거,주출입구 접근로,출입구(문),해당시설 층수"
277,20277,37.52817422189605,126.96752202517916,LS용산타워,shopping,서울특별시 용산구 한강대로 92,"계단 또는 승강설비,대변기,복도,비치용품,일반사항,주출입구 높이차이 제거,주출입구 접근로,출입구(문),해당시설 층수"
278,20278,37.48709968817009,127.00949337163935,Lexus빌딩,bank,서울특별시 서초구 반포대로 77,"계단 또는 승강설비,대변기,장애인전용주차구역,주출입구 높이차이 제거,주출입구 접근로,출입구(문),해당시설 층수"
279,20279,37.52759517364051,127.04974607923998,L빌딩,beauty/hair,서울특별시 강남구 도산대로85길  45,"주출입구 높이차이 제거,주출입구 접근로,출입구(문)"
280,20280,37.519184830308824,127.02091788558664,M-SPACE,bank,서울특별시 강남구 강남대로158길 26,"계단 또는 승강설비,대변기,장애인전용주차구역,주출입구 높이차이 제거,주출입구 접근로,출입구(문),해당시설 층수"
281,20281,37.499890461884455,127.03038939829682,M.BIZ호텔,hotel,서울특별시 강남구 테헤란로7길 11,"객실 및 침실,관람석 및 열람석,주출입구 높이차이 제거,주출입구 접근로,출입구(문)"
282,20282,37.508916850142626,127.08019007138485,MBC아카데미,education/job,서울특별시 송파구 백제고분로 9길 10,"계단 또는 승강설비,대변기,소변기,일반사항,장애인전용주차구역,주출입구 높이차이 제거,주출입구 접근로,출입구(문),해당시설 층수"
283,20283,37.52624723269039,127.04041428586758,MD병원,hospital,서울특별시 강남구 선릉로 832,"객실 및 침실,경보 및 피난설비,계단 또는 승강설비,대변기,세면대,소변기,유도 및 안내 설비,일반사항,장애인전용주차구역,점자블록,주출입구 높이차이 제거,주출입구 접근로,출입구(문),해당시설 층수"
284,20284,37.49709079705835,126.8912029749634,METRO구로센터,bank,서울특별시 구로구 가마산로27길 11-1,"계단 또는 승강설비,대변기,일반사항,장애인전용주차구역,주출입구 높이차이 제거,주출입구 접근로,출입구(문),해당시설 층수"
285,20285,37.485866371595904,127.01625922340173,MGL블루핀타워,hospital,서울특별시 서초구 서초중앙로 42,"계단 또는 승강설비,대변기,일반사항,장애인전용주차구역,주출입구 높이차이 제거,주출입구 접근로,출입구(문),해당시설 층수"
286,20286,37.53593667455275,127.05378406671655,MG빌딩,bank,서울특별시 성동구 성수이로 8,"계단 또는 승강설비,대변기,일반사항,장애인전용주차구역,주출입구 높이차이 제거,주출입구 접근로,출입구(문),해당시설 층수"
287,20287,37.51622259848494,127.0350110748038,MH빌딩,hospital,서울특별시 강남구 언주로 707,"계단 또는 승강설비,대변기,일반사항,장애인전용주차구역,주출입구 높이차이 제거,주출입구 접근로,출입구(문),해당시설 층수"
288,20288,37.564630919962944,127.17407286665761,MIDC,education/job,서울특별시 강동구 아리수로 421,"계단 또는 승강설비,대변기,소변기,일반사항,장애인전용주차구역,주출입구 높이차이 제거,주출입구 접근로,출입구(문),해당시설 층수"
289,20289,37.47887940692706,126.89095804457516,MIND관광호텔,tourist hotel,서울특별시 금천구 남부순환로 1262,"경보 및 피난설비,계단 또는 승강설비,장애인전용주차구역,주출입구 높이차이 제거,주출입구 접근로,출입구(문),해당시설 층수"
290,20290,37.55460625285188,127.01150733778475,MJ빌딩,shopping/mart,서울특별시 중구 동호로  186-7,"주출입구 높이차이 제거,주출입구 접근로,출입구(문)"
291,20291,37.522402566166306,127.0379687461197,MS 빌딩,restaurant,서울특별시 강남구 도산대로 328,"장애인전용주차구역,주출입구 높이차이 제거,주출입구 접근로,출입구(문)"
292,20292,37.517071585435396,127.03992972782822,M TOWER,bank,서울특별시 강남구 학동로  337,"계단 또는 승강설비,대변기,일반사항,장애인전용주차구역,주출입구 높이차이 제거,주출입구 접근로,출입구(문),해당시설 층수"
293,20293,37.47254706452565,127.0503245557749,MUG FOR RABBIT,restaurant,서울특별시 강남구 논현로15길  65,"장애인전용주차구역,주출입구 높이차이 제거,주출입구 접근로,출입구(문)"
294,20294,37.47738570511922,127.04533526827105,MVP성형외과,hospital,서울특별시 강남구 논현로 81,"계단 또는 승강설비,대변기,일반사항,장애인전용주차구역,주출입구 높이차이 제거,주출입구 접근로,출입구(문),해당시설 층수"
295,20295,37.518555516832365,126.90713949511914,Moon 호텔,hotel,서울특별시 영등포구 영중로8길 13,"객실 및 침실,관람석 및 열람석,주출입구 높이차이 제거,주출입구 접근로,출입구(문)"
296,20296,37.48485991473142,126.93113327989234,M모텔,hotel,서울특별시 관악구 남부순환로181길 6,"객실 및 침실,관람석 및 열람석,주출입구 높이차이 제거,주출입구 접근로,출입구(문)"
297,20297,37.501526233307565,127.05987990867781,M빌딩,education/job,서울특별시 강남구 삼성로 334,"계단 또는 승강설비,대변기,소변기,일반사항,장애인전용주차구역,주출입구 높이차이 제거,주출입구 접근로,출입구(문),해당시설 층수"
298,20298,37.52433553004852,127.0447889813179,M 빌딩,shopping/mart,서울특별시 강남구 도산대로 445,"주출입구 높이차이 제거,주출입구 접근로,출입구(문)"
299,20299,37.50844655017931,127.05869107535146,M타워,hospital,서울특별시 강남구 테헤란로87길 2,"계단 또는 승강설비,대변기,일반사항,장애인전용주차구역,주출입구 높이차이 제거,주출입구 접근로,출입구(문),해당시설 층수"
300,20300,37.50734920844448,127.05476788421097,M호텔,hotel,서울특별시 강남구 테헤란로77길 12,"주출입구 높이차이 제거,주출입구 접근로,출입구(문)"
301,20301,37.52487118041326,127.04821026638459,N4 크리에이티브빌딩,bank,서울특별시 강남구 도산대로81길 4,"계단 또는 승강설비,대변기,일반사항,장애인전용주차구역,주출입구 높이차이 제거,주출입구 접근로,출입구(문),해당시설 층수"
302,20302,37.55993389026776,126.84049753916855,NC백화점,shopping,서울특별시 강서구 강서로56길 17,"계단 또는 승강설비,대변기,비치용품,일반사항,장애인전용주차구역,주출입구 높이차이 제거,주출입구 접근로,출입구(문),해당시설 층수"
303,20303,37.48628477285406,127.01362254632953,NINETH 호텔,hotel,서울특별시 서초구 반포대로14길 51,"객실 및 침실,관람석 및 열람석,주출입구 높이차이 제거,주출입구 접근로,출입구(문)"
304,20304,37.530922598441485,126.83847310770925,NYX  HOTEL,hotel,서울특별시 강서구 월정로24길 1,"객실 및 침실,관람석 및 열람석,주출입구 높이차이 제거,주출입구 접근로,출입구(문)"
305,20305,37.56341011693503,126.98288636707568,Noon Square,shopping,서울특별시 중구 명동길 14,"계단 또는 승강설비,대변기,복도,비치용품,일반사항,주출입구 높이차이 제거,주출입구 접근로,출입구(문),해당시설 층수"
306,20306,37.515670779980454,127.11506784136604,OK목장,restaurant,서울특별시 송파구 백제고분로 507,"장애인전용주차구역,주출입구 높이차이 제거,주출입구 접근로,출입구(문)"
307,20307,37.56585373270286,126.98369171445331,OPUS 11,bank,서울특별시 중구 을지로 54,"계단 또는 승강설비,대변기,복도,일반사항,주출입구 높이차이 제거,주출입구 접근로,출입구(문),해당시설 층수"
308,20308,37.497530417166075,127.0577778440066,OREDA빌딩,education/job,서울특별시 강남구 도곡로 432,"계단 또는 승강설비,대변기,소변기,일반사항,장애인전용주차구역,주출입구 높이차이 제거,주출입구 접근로,출입구(문),해당시설 층수"
309,20309,37.51529189993351,127.06311687908342,OTC센터빌딩,bank,서울특별시 강남구 영동대로112길  36,"계단 또는 승강설비,대변기,일반사항,장애인전용주차구역,주출입구 높이차이 제거,주출입구 접근로,출입구(문),해당시설 층수"
310,20310,37.496549243983345,126.89017695458553,PARKSIDE,bank,서울특별시 구로구 가마산로25길 -13,"계단 또는 승강설비,대변기,장애인전용주차구역,주출입구 높이차이 제거,주출입구 접근로,출입구(문),해당시설 층수"
311,20311,37.531941294599804,126.97092357760987,POBA 행정공제회,bank,서울특별시 용산구 한강대로  144,"계단 또는 승강설비,대변기,복도,일반사항,주출입구 높이차이 제거,주출입구 접근로,출입구(문),해당시설 층수"
312,20312,37.53979725097382,126.98673885512427,PSA SCHOOL (상가3동),education/job,서울특별시 용산구 신흥로  14,"계단 또는 승강설비,대변기,복도,소변기,일반사항,주출입구 높이차이 제거,주출입구 접근로,출입구(문),해당시설 층수"
313,20313,37.560427949133015,127.05692545901603,R&D센타,education/job,서울특별시 성동구 자동차시장길 23,"계단 또는 승강설비,대변기,소변기,장애인전용주차구역,주출입구 높이차이 제거,주출입구 접근로,출입구(문),해당시설 층수"
314,20314,37.5141676106954,127.02322847390532,RAYA빌딩,education/job,서울특별시 강남구 학동로7길 34,"계단 또는 승강설비,대변기,소변기,장애인전용주차구역,주출입구 높이차이 제거,주출입구 접근로,출입구(문),해당시설 층수"
315,20315,37.49146235466798,127.03702132666643,RID ENGLISH ACADEMY,education/job,서울특별시 강남구 도곡로 157,"계단 또는 승강설비,대변기,소변기,일반사항,장애인전용주차구역,주출입구 높이차이 제거,주출입구 접근로,출입구(문),해당시설 층수"
316,20316,37.54478294710908,126.92376823944132,ROYCO(로이코)빌딩,bank,서울특별시 마포구 토정로 112,"계단 또는 승강설비,대변기,일반사항,장애인전용주차구역,주출입구 높이차이 제거,주출입구 접근로,출입구(문),해당시설 층수"
317,20317,37.52642139428413,127.0469939907366,Ra끌로에빌딩,beauty/hair,서울특별시 강남구 도산대로81길  31,"주출입구 높이차이 제거,주출입구 접근로,출입구(문)"
318,20318,37.51175726824423,127.01906990050006,Rockn Roll,shopping/mart,서울특별시 서초구 신반포로47길 23,"주출입구 높이차이 제거,주출입구 접근로,출입구(문)"
319,20319,37.58892005819255,127.00775358099222,R호텔,hotel,서울특별시 성북구 동소문로  14-14,"객실 및 침실,관람석 및 열람석,주출입구 높이차이 제거,주출입구 접근로,출입구(문)"
320,20320,37.4892646977176,127.01815507069925,S & W 빌딩,bank,서울특별시 서초구 사임당로 76,"계단 또는 승강설비,대변기,장애인전용주차구역,주출입구 높이차이 제거,주출입구 접근로,출입구(문),해당시설 층수"
321,20321,37.55344780596637,126.93749829049636,S-OIL 사옥,bank,서울특별시 마포구 백범로  12,"계단 또는 승강설비,대변기,일반사항,장애인전용주차구역,주출입구 높이차이 제거,주출입구 접근로,출입구(문),해당시설 층수"
322,20322,37.557539150515744,126.83924864919523,S.G.I강서문화회관,church,서울특별시 강서구 강서로52길  24,"장애인전용주차구역,주출입구 높이차이 제거,주출입구 접근로,출입구(문)"
323,20323,37.531987655681775,126.84803321696027,S . J 에반어학원,education/job,서울특별시 강서구 강서로12길  23-5,"계단 또는 승강설비,대변기,소변기,일반사항,장애인전용주차구역,주출입구 높이차이 제거,주출입구 접근로,출입구(문),해당시설 층수"
324,20324,37.552870725931854,126.83061253926616,S.M타워,education/job,서울특별시 강서구 강서로45길 174,"계단 또는 승강설비,대변기,소변기,일반사항,장애인전용주차구역,주출입구 높이차이 제거,주출입구 접근로,출입구(문),해당시설 층수"
325,20325,37.53167807340593,126.8248723742142,S.O.S 어린이마을,daycare center,서울특별시 양천구 가로공원로58길 32,"대변기,소변기,장애인전용주차구역,주출입구 높이차이 제거,주출입구 접근로,출입구(문),해당시설 층수"
326,20326,37.56316136069242,126.85020645207474,SBS공개홀,broadcasting station,서울특별시 강서구 양천로  442,"계단 또는 승강설비,대변기,일반사항,장애인전용주차구역,주출입구 높이차이 제거,주출입구 접근로,출입구(문),해당시설 층수"
327,20327,37.57971752104694,126.89277195237696,SBS 미디어센터 ,broadcasting station,서울특별시 마포구 상암산로  82,"계단 또는 승강설비,대변기,일반사항,장애인전용주차구역,주출입구 높이차이 제거,주출입구 접근로,출입구(문),해당시설 층수"
328,20328,37.52918880215708,126.87374737163316,SBS서울방송국,broadcasting station,서울특별시 양천구 목동서로 161,"계단 또는 승강설비,대변기,장애인전용주차구역,주출입구 높이차이 제거,주출입구 접근로,출입구(문),해당시설 층수"
329,20329,37.498169477084815,127.03693416807896,SBS아카데미(조앤리빌딩),education/job,서울특별시 강남구 논현로81길  12,"계단 또는 승강설비,대변기,소변기,일반사항,장애인전용주차구역,주출입구 높이차이 제거,주출입구 접근로,출입구(문),해당시설 층수"
330,20330,37.52186238480681,127.03663815055332,SB타워(신축),bank,서울특별시 강남구 도산대로  318,"계단 또는 승강설비,대변기,일반사항,장애인전용주차구역,주출입구 높이차이 제거,주출입구 접근로,출입구(문),해당시설 층수"
331,20331,37.558580244916385,126.938177599312,SD타워II,restaurant,서울특별시 서대문구 명물길 37,"장애인전용주차구역,주출입구 높이차이 제거,주출입구 접근로,출입구(문)"
332,20332,37.558580244916385,126.938177599312,SD타워II 세븐일레븐,restaurant,서울특별시 서대문구 명물길  37,"장애인전용주차구역,주출입구 높이차이 제거,주출입구 접근로,출입구(문)"
333,20333,37.542754174186065,126.83303882175879,SEC어린이집,daycare center,서울특별시 강서구 화곡로13길 66,"계단 또는 승강설비,대변기,소변기,장애인전용주차구역,주출입구 높이차이 제거,주출입구 접근로,출입구(문),해당시설 층수"
334,20334,37.50874500198599,126.90664947308156,SGI 한국불교회 영등포문화회관,church,서울특별시 영등포구 도신로 134,"장애인전용주차구역,주출입구 높이차이 제거,주출입구 접근로,출입구(문)"
335,20335,37.50193464302186,127.02753577118013,SG연기 아카데미,bank,서울특별시 강남구 봉은사로18길 74,"계단 또는 승강설비,대변기,일반사항,장애인전용주차구역,주출입구 높이차이 제거,주출입구 접근로,출입구(문),해당시설 층수"
336,20336,37.48548736520558,126.93173422422817,SHOW모텔,hotel,서울특별시 관악구 신림로66길 34,"객실 및 침실,관람석 및 열람석,주출입구 높이차이 제거,주출입구 접근로,출입구(문)"
337,20337,37.49413049318583,127.07878110478924,SH공사,government office building,서울특별시 강남구 개포로 621,"객실 및 침실,경보 및 피난설비,계단 또는 승강설비,대변기,매표소, 판매기, 음료대,비치용품,세면대,소변기,유도 및 안내 설비,일반사항,장애인전용주차구역,점자블록,접수대 및 작업대,주출입구 높이차이 제거,주출입구 접근로,출입구(문),해당시설 층수"
338,20338,37.5102805522774,127.04297089989284,SH타워,bank,서울특별시 강남구 봉은사로  331,"계단 또는 승강설비,대변기,장애인전용주차구역,주출입구 높이차이 제거,주출입구 접근로,출입구(문),해당시설 층수"
339,20339,37.47949329640462,126.88463491265925,SJ 테크노빌,factory,서울특별시 금천구 벚꽃로  278,"대변기,소변기,일반사항,장애인전용주차구역,주출입구 높이차이 제거,주출입구 접근로,출입구(문)"
340,20340,37.51861526866649,127.05497067958186,SKM빌딩,shopping/mart,서울특별시 강남구 삼성로122길 33,"주출입구 높이차이 제거,주출입구 접근로,출입구(문)"
341,20341,37.566488223400086,126.98512682608397,SK T-타워,daycare center,서울특별시 중구 을지로 65,"계단 또는 승강설비,대변기,복도,소변기,일반사항,주출입구 높이차이 제거,주출입구 접근로,출입구(문),해당시설 층수"
342,20342,37.546102675857064,127.06286221234927,SK Telecom 성수사옥,bank,서울특별시 성동구 광나루로6길  36,"계단 또는 승강설비,대변기,장애인전용주차구역,주출입구 높이차이 제거,주출입구 접근로,출입구(문),해당시설 층수"
343,20343,37.557348903017335,126.96869092681183,SKY 1444빌딩,bank,서울특별시 중구 중림로 54-1,"계단 또는 승강설비,대변기,복도,일반사항,주출입구 높이차이 제거,주출입구 접근로,출입구(문),해당시설 층수"
344,20344,37.52440050672158,127.12827178337052,SK네트웍스,bank,서울특별시 강동구 강동대로 195,"계단 또는 승강설비,대변기,장애인전용주차구역,주출입구 높이차이 제거,주출입구 접근로,출입구(문),해당시설 층수"
345,20345,37.5423133721244,126.94896777191548,SK허브그린,bank,서울특별시 마포구 마포대로  73,"계단 또는 승강설비,대변기,일반사항,장애인전용주차구역,주출입구 높이차이 제거,주출입구 접근로,출입구(문),해당시설 층수"
346,20346,37.535247312084564,127.13266219529238,SK허브진,restaurant,서울특별시 강동구 천호대로 1092,"장애인전용주차구역,주출입구 높이차이 제거,주출입구 접근로,출입구(문)"
347,20347,37.49403863579546,127.08137281572982,SLP강남영어학당(천보빌딩),education/job,서울특별시 강남구 개포로 626,"계단 또는 승강설비,대변기,소변기,장애인전용주차구역,주출입구 높이차이 제거,주출입구 접근로,출입구(문),해당시설 층수"
348,20348,37.56687640422922,126.9098459223687,SMC서울메디칼센터(의원),hospital,서울특별시 마포구 월드컵북로  165,"계단 또는 승강설비,대변기,일반사항,장애인전용주차구역,주출입구 높이차이 제거,주출입구 접근로,출입구(문),해당시설 층수"
349,20349,37.643002497912576,127.03746804593098,SM마트창동점,shopping/mart,서울특별시 도봉구 덕릉로63가길60 (창동),"주출입구 높이차이 제거,주출입구 접근로,출입구(문)"
350,20350,37.50025436175658,127.06599027590981,SM타워,education/job,서울특별시 강남구 도곡로 541,"계단 또는 승강설비,대변기,소변기,일반사항,장애인전용주차구역,주출입구 높이차이 제거,주출입구 접근로,출입구(문),해당시설 층수"
351,20351,37.4826252381686,127.06270949701906,SM호텔,hotel,서울특별시 강남구 선릉로2길 37-5,"객실 및 침실,관람석 및 열람석,주출입구 높이차이 제거,주출입구 접근로,출입구(문)"
352,20352,37.49992630052413,127.01093801741372,SOT학원,education/job,서울특별시 서초구 서초중앙로31길 14-4,"계단 또는 승강설비,대변기,소변기,장애인전용주차구역,주출입구 높이차이 제거,주출입구 접근로,출입구(문),해당시설 층수"
353,20353,37.65276591274555,127.04657941692842,SR스타빌,bank,서울특별시 도봉구 노해로63길 84-,"계단 또는 승강설비,대변기,일반사항,장애인전용주차구역,주출입구 높이차이 제거,주출입구 접근로,출입구(문),해당시설 층수"
354,20354,37.56255248924077,126.98374223508443,SSFW,shopping/mart,서울특별시 중구 명동4길 26,"주출입구 높이차이 제거,주출입구 접근로,출입구(문)"
355,20355,37.50176595626563,126.87724965859879,STX.WTOWER,factory,서울특별시 구로구 경인로53길  4,"대변기,소변기,일반사항,장애인전용주차구역,주출입구 높이차이 제거,주출입구 접근로,출입구(문)"
356,20356,37.477236246812176,126.88369324044788,STX V-TOWER,factory,서울특별시 금천구 가산디지털1로 128,"대변기,소변기,일반사항,장애인전용주차구역,주출입구 높이차이 제거,주출입구 접근로,출입구(문)"
357,20357,37.52413853195293,127.04144033278857,SUNG BLD(승원빌딩),shopping/mart,서울특별시 강남구 도산대로57길 8,"주출입구 높이차이 제거,주출입구 접근로,출입구(문)"
358,20358,37.52420691273843,126.88313165727715,SUN JIN ENG,bank,서울특별시 영등포구 영등포로3길  1,"계단 또는 승강설비,대변기,장애인전용주차구역,주출입구 높이차이 제거,주출입구 접근로,출입구(문),해당시설 층수"
359,20359,37.46926833222184,127.02460726729815,Swee빌딩,bank,서울특별시 서초구 바우뫼로3길 88-1,"계단 또는 승강설비,대변기,일반사항,장애인전용주차구역,주출입구 높이차이 제거,주출입구 접근로,출입구(문),해당시설 층수"
360,20360,37.4851766667623,126.93044554025245,S안마시술소,massage parlor,서울특별시 관악구 신림로64길 11,"장애인전용주차구역,주출입구 높이차이 제거,주출입구 접근로,출입구(문)"
361,20361,37.51696030766857,127.0385858599159,S컨벤션웨딩(JK타워),restaurant,서울특별시 강남구 학동로47길  5,"장애인전용주차구역,주출입구 높이차이 제거,주출입구 접근로,출입구(문)"
362,20362,37.526151090142,127.04700287150108,S테라스 레스토랑(송은아트 스페이스),restaurant,서울특별시 강남구 압구정로75길  6,"장애인전용주차구역,주출입구 높이차이 제거,주출입구 접근로,출입구(문)"
363,20363,37.54500124268248,126.93980470436426,TAF빌딩,bank,서울특별시 마포구 대흥로  54,"계단 또는 승강설비,대변기,일반사항,장애인전용주차구역,주출입구 높이차이 제거,주출입구 접근로,출입구(문),해당시설 층수"
364,20364,37.526519408097364,126.89320110818385,THE PARK 365,bank,서울특별시 영등포구 선유동1로 54,"계단 또는 승강설비,대변기,장애인전용주차구역,주출입구 높이차이 제거,주출입구 접근로,출입구(문),해당시설 층수"
365,20365,37.48349486481742,126.95550224229818,THE REPOSE,bank,서울특별시 관악구 행운1마길 16,"계단 또는 승강설비,대변기,일반사항,장애인전용주차구역,주출입구 높이차이 제거,주출입구 접근로,출입구(문),해당시설 층수"
366,20366,37.5269276919481,127.04240574538971,THE TRINITY PLACE,exhibition center,서울특별시 강남구 압구정로 416,"경보 및 피난설비,계단 또는 승강설비,대변기,비치용품,장애인전용주차구역,주출입구 높이차이 제거,주출입구 접근로,출입구(문),해당시설 층수"
367,20367,37.50656146838594,127.05905151793706,TKOK빌딩,bank,서울특별시 강남구 테헤란로86길 12,"계단 또는 승강설비,대변기,일반사항,장애인전용주차구역,주출입구 높이차이 제거,주출입구 접근로,출입구(문),해당시설 층수"
368,20368,37.592378776223775,127.01783134399972,TOM N TOMS COFFEE,shopping/mart,서울특별시 성북구 동소문로22길 15,"주출입구 높이차이 제거,주출입구 접근로,출입구(문)"
369,20369,37.56385379595231,126.98582004860903,T avenue,shopping/mart,서울특별시 중구 명동길 64,"주출입구 높이차이 제거,주출입구 접근로,출입구(문)"
370,20370,37.55953625545369,126.9861196608567,T avenue,shopping/mart,서울특별시 중구 명동14길 7-,"주출입구 높이차이 제거,주출입구 접근로,출입구(문)"
371,20371,37.51620031629079,127.1115756939245,The View ,hotel,서울특별시 송파구 올림픽로34길 5-16,"객실 및 침실,관람석 및 열람석,주출입구 높이차이 제거,주출입구 접근로,출입구(문)"
372,20372,37.49083577936577,126.90560433034331,The크는 어린이집,daycare center,서울특별시 영등포구 대림로8길 -14,"계단 또는 승강설비,대변기,소변기,장애인전용주차구역,주출입구 높이차이 제거,주출입구 접근로,출입구(문),해당시설 층수"
373,20373,37.46926833222184,127.02460726729815,Turbotak,bank,서울특별시 서초구 바우뫼로 13,"계단 또는 승강설비,대변기,일반사항,장애인전용주차구역,주출입구 높이차이 제거,주출입구 접근로,출입구(문),해당시설 층수"
374,20374,37.47811102173159,126.95708822747409,UBF연구센터,education/job,서울특별시 관악구 관악로14길 81,"계단 또는 승강설비,대변기,소변기,장애인전용주차구역,주출입구 높이차이 제거,주출입구 접근로,출입구(문),해당시설 층수"
375,20375,37.50348719843521,127.03069395033094,UKK fastening prdnets sales,shopping/mart,서울특별시 강남구 테헤란로13길 62,"주출입구 높이차이 제거,주출입구 접근로,출입구(문)"
376,20376,37.54032510633825,127.12630761155457,Uni모텔,hotel,서울특별시 강동구 구천면로24길 1,"주출입구 높이차이 제거,주출입구 접근로,출입구(문)"
377,20377,37.5049668256752,127.05503757685717,V&S빌딩,bank,서울특별시 강남구 삼성로85길 26,"계단 또는 승강설비,대변기,일반사항,장애인전용주차구역,주출입구 높이차이 제거,주출입구 접근로,출입구(문),해당시설 층수"
378,20378,37.55634170573935,126.93730121307375,VERTIGO빌딩,concert hall,서울특별시 서대문구 연세로 8-1,"객실 및 침실,경보 및 피난설비,계단 또는 승강설비,관람석 및 열람석,대변기,매표소, 판매기, 음료대,비치용품,세면대,소변기,유도 및 안내 설비,장애인전용주차구역,점자블록,접수대 및 작업대,주출입구 높이차이 제거,주출입구 접근로,출입구(문),해당시설 층수"
379,20379,37.52556316468241,127.048174510666,VIEL RYUJIWON ,shopping/mart,서울특별시 강남구 도산대로83길 17,"주출입구 높이차이 제거,주출입구 접근로,출입구(문)"
380,20380,37.5585414091979,126.84218006787313,VIPS,restaurant,서울특별시 강서구 공항대로  311,"장애인전용주차구역,주출입구 높이차이 제거,주출입구 접근로,출입구(문)"
381,20381,37.516298804099534,127.03320580766136,V uittan 빌딩,shopping/mart,서울특별시 강남구 언주로133길  24,"주출입구 높이차이 제거,주출입구 접근로,출입구(문)"
382,20382,37.47732659805576,126.88767717225781,W-MALL,shopping,서울특별시 금천구 디지털로 188,"계단 또는 승강설비,대변기,비치용품,일반사항,장애인전용주차구역,주출입구 높이차이 제거,주출입구 접근로,출입구(문),해당시설 층수"
383,20383,37.53740657660893,127.13853150940443,WA BAR,restaurant,서울특별시 강동구 양재대로111길 18,"장애인전용주차구역,주출입구 높이차이 제거,주출입구 접근로,출입구(문)"
384,20384,37.48436740783736,126.93330459979977,W병원,general hospital,서울특별시 관악구 남부순환로  1644,"객실 및 침실,경보 및 피난설비,계단 또는 승강설비,대변기,세면대,소변기,유도 및 안내 설비,장애인전용주차구역,점자블록,주출입구 높이차이 제거,주출입구 접근로,출입구(문),해당시설 층수"
385,20385,37.50260882204331,127.02654531924539,W빌딩,shopping/mart,서울특별시 강남구 봉은사로2길 31,"주출입구 높이차이 제거,주출입구 접근로,출입구(문)"
386,20386,37.51549828376955,127.03469854455159,W저축은행,bank,서울특별시 강남구 학동로  233,"계단 또는 승강설비,대변기,일반사항,장애인전용주차구역,주출입구 높이차이 제거,주출입구 접근로,출입구(문),해당시설 층수"
387,20387,37.50258036554254,127.02481724033439,W타워,education/job,서울특별시 서초구 서초대로77길  54,"계단 또는 승강설비,대변기,소변기,일반사항,장애인전용주차구역,주출입구 높이차이 제거,주출입구 접근로,출입구(문),해당시설 층수"
388,20388,37.618357720360834,127.07677348271562,W호텔,hotel,서울특별시 노원구 화랑로 445,"객실 및 침실,관람석 및 열람석,주출입구 높이차이 제거,주출입구 접근로,출입구(문)"
389,20389,37.51094501482311,127.11226007988729,YBM ECC,kindergarten,서울특별시 송파구 백제고분로449,"계단 또는 승강설비,대변기,소변기,일반사항,장애인전용주차구역,주출입구 높이차이 제거,주출입구 접근로,출입구(문),해당시설 층수"
390,20390,37.50262338172785,127.02589842915113,YBM강남센터,education/job,서울특별시 강남구 강남대로 448,"계단 또는 승강설비,대변기,소변기,일반사항,장애인전용주차구역,주출입구 높이차이 제거,주출입구 접근로,출입구(문),해당시설 층수"
391,20391,37.56972853796587,126.98806925082077,YBM 어학원 Premier종로센터,education/job,서울특별시 종로구 삼일대로 394,"계단 또는 승강설비,대변기,소변기,일반사항,장애인전용주차구역,주출입구 높이차이 제거,주출입구 접근로,출입구(문),해당시설 층수"
392,20392,37.501462623690905,127.02706965952414,YBM 커리어 캠퍼스 평생 교육원,education/job,서울특별시 강남구 테헤란로1길 48,"계단 또는 승강설비,대변기,소변기,장애인전용주차구역,주출입구 높이차이 제거,주출입구 접근로,출입구(문),해당시설 층수"
393,20393,37.56114750118832,127.05945222793571,YBS빌딩,bank,서울특별시 성동구 자동차시장1길  18,"계단 또는 승강설비,대변기,일반사항,장애인전용주차구역,주출입구 높이차이 제거,주출입구 접근로,출입구(문),해당시설 층수"
394,20394,37.54793914736378,127.06573806903643,YD빌딩,bank,서울특별시 성동구 광나루로  324-2,"계단 또는 승강설비,대변기,장애인전용주차구역,주출입구 높이차이 제거,주출입구 접근로,출입구(문),해당시설 층수"
395,20395,37.567139844506904,126.98034097913133,YG타워,bank,서울특별시 중구 다동 155,"계단 또는 승강설비,대변기,복도,일반사항,주출입구 높이차이 제거,주출입구 접근로,출입구(문),해당시설 층수"
396,20396,37.545212058815736,126.92996885322214,Y모텔 ,hotel,서울특별시 마포구 서강로24길 24,"객실 및 침실,관람석 및 열람석,주출입구 높이차이 제거,주출입구 접근로,출입구(문)"
397,20397,37.4753197587013,127.04745488359325,Y타워,meeting hall,서울특별시 강남구 논현로 54,"계단 또는 승강설비,대변기,일반사항,장애인전용주차구역,주출입구 높이차이 제거,주출입구 접근로,출입구(문),해당시설 층수"
398,20398,37.522352469657264,127.0224798721177,ZARA,shopping/mart,서울특별시 강남구 압구정로12길 24,"주출입구 높이차이 제거,주출입구 접근로,출입구(문)"
399,20399,37.564421804712,126.94441616271801,ZINO,restaurant,서울특별시 서대문구 연대동문길 45,"장애인전용주차구역,주출입구 높이차이 제거,주출입구 접근로,출입구(문)"
400,20400,37.48584510104301,127.01344607997841,ZZAM호텔,massage parlor,서울특별시 서초구 반포대로14길 44,"장애인전용주차구역,주출입구 높이차이 제거,주출입구 접근로,출입구(문)"
401,20401,37.551749425203205,126.92370229727295,coffeesmith(휴게음식점) ,restaurant,서울특별시 마포구 와우산로  82,"장애인전용주차구역,주출입구 높이차이 제거,주출입구 접근로,출입구(문)"
402,20402,37.60862039307808,126.92991397440537,cs모텔,hotel,서울특별시 은평구 진흥로 183,"객실 및 침실,관람석 및 열람석,주출입구 높이차이 제거,주출입구 접근로,출입구(문)"
403,20403,37.52498477186758,127.04339564091642,dar,beauty/hair,서울특별시 강남구 도산대로63길  15,"주출입구 높이차이 제거,주출입구 접근로,출입구(문)"
404,20404,37.555615856579344,127.13375307217179,e-마트 everyday,shopping/mart,서울특별시 강동구 고덕로 ,"주출입구 높이차이 제거,주출입구 접근로,출입구(문)"
405,20405,37.481147083314426,126.9136438626313,e-샤르망오피스텔,bank,서울특별시 관악구 난곡로63길  16,"계단 또는 승강설비,대변기,장애인전용주차구역,주출입구 높이차이 제거,주출입구 접근로,출입구(문),해당시설 층수"
406,20406,37.483012059804665,127.0156435366434,enjoy taste & service,restaurant,서울특별시 서초구 서초중앙로 15,"장애인전용주차구역,주출입구 높이차이 제거,주출입구 접근로,출입구(문)"
407,20407,37.5609577312034,126.8091304838247,e sky 오피스텔,bank,서울특별시 강서구 공항대로  18-1,"계단 또는 승강설비,대변기,일반사항,장애인전용주차구역,주출입구 높이차이 제거,주출입구 접근로,출입구(문),해당시설 층수"
408,20408,37.48374271350868,126.89255650093985,e스페이스빌딩,factory,서울특별시 구로구 디지털로27길 36,"대변기,소변기,장애인전용주차구역,주출입구 높이차이 제거,주출입구 접근로,출입구(문)"
409,20409,37.53752251700981,126.96578004463804,e편한테마트(성상교회),welfare/senior,서울특별시 용산구 원효로 214-34,"계단 또는 승강설비,대변기,복도,소변기,일반사항,주출입구 높이차이 제거,주출입구 접근로,출입구(문),해당시설 층수"
410,20410,37.48640022398951,127.01251901270957,friends,restaurant,서울특별시 서초구 반포대로16길 34,"장애인전용주차구역,주출입구 높이차이 제거,주출입구 접근로,출입구(문)"
411,20411,37.5080881672606,127.03556373629675,kts빌딩,hospital,서울특별시 강남구 봉은사로  215,"계단 또는 승강설비,대변기,일반사항,장애인전용주차구역,주출입구 높이차이 제거,주출입구 접근로,출입구(문),해당시설 층수"
412,20412,37.466638485007906,127.03458551869443,mj근린생활,restaurant,서울특별시 서초구 매헌로 64,"장애인전용주차구역,주출입구 높이차이 제거,주출입구 접근로,출입구(문)"
413,20413,37.52544588580976,127.04393439735757,the red carper,beauty/hair,서울특별시 강남구 압구정로62길  17-14,"주출입구 높이차이 제거,주출입구 접근로,출입구(문)"
414,20414,37.52333879834406,127.02795993516395,㈜교육지존(원방빌딩),hospital,서울특별시 강남구 논현로  837,"계단 또는 승강설비,대변기,일반사항,장애인전용주차구역,주출입구 높이차이 제거,주출입구 접근로,출입구(문),해당시설 층수"
415,20415,37.56101139749765,126.81112687057944,㈜귀뚜라미보일러 사옥빌딩,hospital,서울특별시 강서구 공항대로 36,"계단 또는 승강설비,대변기,장애인전용주차구역,주출입구 높이차이 제거,주출입구 접근로,출입구(문),해당시설 층수"
416,20416,37.54971171574275,126.91624003360494,㈜도서출판넥서스,bank,서울특별시 마포구 양화로8길  24,"계단 또는 승강설비,대변기,장애인전용주차구역,주출입구 높이차이 제거,주출입구 접근로,출입구(문),해당시설 층수"
417,20417,37.48127606163388,126.87978410183052,㈜동광인터내셔날,factory,서울특별시 금천구 가산디지털2로  144,"대변기,소변기,장애인전용주차구역,주출입구 높이차이 제거,주출입구 접근로,출입구(문)"
418,20418,37.53458978180556,126.98990774855764,㈜ 동호프라자1,bank,서울특별시 용산구 이태원로  145,"계단 또는 승강설비,대변기,복도,일반사항,주출입구 높이차이 제거,주출입구 접근로,출입구(문),해당시설 층수"
419,20419,37.527081412661175,127.04575901991417,㈜로바타야인터네셔날인서울,restaurant,서울특별시 강남구 도산대로81길 51,"장애인전용주차구역,주출입구 높이차이 제거,주출입구 접근로,출입구(문)"
420,20420,37.53823023547692,127.00216337700128,㈜미래세움,bank,서울특별시 용산구 이태원로 268-24,"계단 또는 승강설비,대변기,복도,일반사항,주출입구 높이차이 제거,주출입구 접근로,출입구(문),해당시설 층수"
421,20421,37.54524637657202,127.06007328218692,㈜부래당,shopping,서울특별시 성동구 아차산로11길 18,"계단 또는 승강설비,대변기,비치용품,일반사항,장애인전용주차구역,주출입구 높이차이 제거,주출입구 접근로,출입구(문),해당시설 층수"
422,20422,37.536701298613906,127.06006642671701,㈜비츠로시스,bank,서울특별시 성동구 성덕정길 151,"계단 또는 승강설비,대변기,장애인전용주차구역,주출입구 높이차이 제거,주출입구 접근로,출입구(문),해당시설 층수"
423,20423,37.541137466733346,127.06076247382646,㈜삼우아파트형공장,factory,서울특별시 성동구 연무장17길 3,"대변기,소변기,장애인전용주차구역,주출입구 높이차이 제거,주출입구 접근로,출입구(문)"
424,20424,37.47675536652177,126.88580584422616,㈜세목반도체,factory,서울특별시 금천구 벚꽃로  244,"대변기,소변기,일반사항,장애인전용주차구역,주출입구 높이차이 제거,주출입구 접근로,출입구(문)"
425,20425,37.57080257809418,127.01138757687639,㈜쉘론빌딩,bank,서울특별시 종로구 종로44길 21,"계단 또는 승강설비,대변기,복도,일반사항,주출입구 높이차이 제거,주출입구 접근로,출입구(문),해당시설 층수"
426,20426,37.52979939277165,126.85616071357512,㈜스포키빌딩,shopping/mart,서울특별시 강서구 국회대로7길  86,"주출입구 높이차이 제거,주출입구 접근로,출입구(문)"
427,20427,37.54558183000502,127.05951681190994,㈜신도리코,education/job,서울특별시 성동구 성수이로24길 3,"계단 또는 승강설비,대변기,소변기,일반사항,장애인전용주차구역,주출입구 높이차이 제거,주출입구 접근로,출입구(문),해당시설 층수"
428,20428,37.49970105503088,126.91934933409667,㈜신한에디피스빌딩,bank,서울특별시 영등포구 신풍로  118,"계단 또는 승강설비,대변기,일반사항,장애인전용주차구역,주출입구 높이차이 제거,주출입구 접근로,출입구(문),해당시설 층수"
429,20429,37.58364767955851,127.00231413577556,㈜에니웍스,concert hall,서울특별시 종로구 동숭길 144,"객실 및 침실,경보 및 피난설비,계단 또는 승강설비,관람석 및 열람석,대변기,매표소, 판매기, 음료대,비치용품,세면대,소변기,유도 및 안내 설비,일반사항,장애인전용주차구역,점자블록,접수대 및 작업대,주출입구 높이차이 제거,주출입구 접근로,출입구(문),해당시설 층수"
430,20430,37.51881599952303,126.90387685002163,㈜연합충무,hospital,서울특별시 영등포구 영등포로36길  13,"객실 및 침실,경보 및 피난설비,계단 또는 승강설비,대변기,세면대,소변기,유도 및 안내 설비,일반사항,장애인전용주차구역,점자블록,주출입구 높이차이 제거,주출입구 접근로,출입구(문),해당시설 층수"
431,20431,37.497609610406975,127.05797241294333,㈜영재사관(단우빌딩),education/job,서울특별시 강남구 도곡로 434,"계단 또는 승강설비,대변기,소변기,일반사항,장애인전용주차구역,주출입구 높이차이 제거,주출입구 접근로,출입구(문),해당시설 층수"
432,20432,37.56491414010485,126.99568075817483,㈜오일관광풍전호텔,bank,서울특별시 중구 마른내로 71,"계단 또는 승강설비,대변기,복도,일반사항,주출입구 높이차이 제거,주출입구 접근로,출입구(문),해당시설 층수"
433,20433,37.469844855195575,126.89179865229373,㈜우성어패럴,factory,서울특별시 금천구 범안로15길 73,"대변기,소변기,장애인전용주차구역,주출입구 높이차이 제거,주출입구 접근로,출입구(문)"
434,20434,37.46894122074894,126.88519825754874,㈜우전앤한단,factory,서울특별시 금천구 가산디지털1로  33-23,"대변기,소변기,장애인전용주차구역,주출입구 높이차이 제거,주출입구 접근로,출입구(문)"
435,20435,37.52294488391168,127.03219063478232,㈜이리오어라(한정식),restaurant,서울특별시 강남구 언주로153길  12,"장애인전용주차구역,주출입구 높이차이 제거,주출입구 접근로,출입구(문)"
436,20436,37.5356189058619,126.96345016083274,㈜인텍엔컴퍼니,shopping/mart,서울특별시 용산구 원효로58길 15,"주출입구 높이차이 제거,주출입구 접근로,출입구(문)"
437,20437,37.54314683873525,127.063905280293,㈜일심,factory,서울특별시 성동구 성수이로22길  61,"대변기,소변기,장애인전용주차구역,주출입구 높이차이 제거,주출입구 접근로,출입구(문)"
438,20438,37.55942775131847,127.0336821827111,㈜전자랜드행당점,shopping/mart,서울특별시 성동구 고산자로  217,"주출입구 높이차이 제거,주출입구 접근로,출입구(문)"
439,20439,37.499395727567524,127.06754109711814,㈜정상제이엘에스(정상빌딩),education/job,서울특별시 강남구 영동대로 227,"계단 또는 승강설비,대변기,소변기,장애인전용주차구역,주출입구 높이차이 제거,주출입구 접근로,출입구(문),해당시설 층수"
440,20440,37.52592083376672,127.03554504914634,㈜젠 하이더 웨이,restaurant,서울특별시 강남구 언주로168길  24,"장애인전용주차구역,주출입구 높이차이 제거,주출입구 접근로,출입구(문)"
441,20441,37.563997820444186,126.98473796036342,㈜조흥은행,restaurant,서울특별시 중구 명동길 43,"주출입구 높이차이 제거,주출입구 접근로,출입구(문)"
442,20442,37.52526067198985,127.04757247661955,㈜청담안,restaurant,서울특별시 강남구 도산대로81길 13,"장애인전용주차구역,주출입구 높이차이 제거,주출입구 접근로,출입구(문)"
443,20443,37.52236312307613,126.9094198675176,㈜토산산업개발사옥,restaurant,서울특별시 영등포구 국회대로54길 35,"장애인전용주차구역,주출입구 높이차이 제거,주출입구 접근로,출입구(문)"
444,20444,37.498257265355505,127.06011251923073,㈜토피아에듀케이션(덕산빌딩),education/job,서울특별시 강남구 도곡로 454,"계단 또는 승강설비,대변기,소변기,장애인전용주차구역,주출입구 높이차이 제거,주출입구 접근로,출입구(문),해당시설 층수"
445,20445,37.52739918322103,127.03311569745051,㈜프린스턴 리뷰코리아,education/job,서울특별시 강남구 언주로 861,"계단 또는 승강설비,대변기,소변기,일반사항,장애인전용주차구역,주출입구 높이차이 제거,주출입구 접근로,출입구(문),해당시설 층수"
446,20446,37.474820148431085,126.88228610054158,㈜하이원전자,factory,서울특별시 금천구 가산디지털2로  74,"대변기,소변기,장애인전용주차구역,주출입구 높이차이 제거,주출입구 접근로,출입구(문)"
447,20447,37.55570760328976,126.83610182961466,가곡초등학교,elementary school,서울특별시 강서구 공항대로36길  74,"객실 및 침실,경보 및 피난설비,계단 또는 승강설비,대변기,소변기,유도 및 안내 설비,일반사항,장애인전용주차구역,점자블록,주출입구 높이차이 제거,주출입구 접근로,출입구(문),해당시설 층수"
448,20448,37.6310588176778,127.0246106676442,가구갤러리,shopping/mart,서울특별시 강북구 도봉로 252,"주출입구 높이차이 제거,주출입구 접근로,출입구(문)"
449,20449,37.497692301657224,126.99849369259849,가나빌딩,hospital,서울특별시 서초구 서래로6길  4,"계단 또는 승강설비,대변기,장애인전용주차구역,주출입구 높이차이 제거,주출입구 접근로,출입구(문),해당시설 층수"
450,20450,37.544597180974634,127.13799260844502,가나안의집,welfare/etc,서울특별시 강동구 천중로35길 73-7,"객실 및 침실,경보 및 피난설비,계단 또는 승강설비,관람석 및 열람석,대변기,매표소, 판매기, 음료대,복도,비치용품,샤워실 및 탈의실,세면대,소변기,욕실,유도 및 안내 설비,장애인전용주차구역,점자블록,접수대 및 작업대,주출입구 높이차이 제거,주출입구 접근로,출입구(문),해당시설 층수"
451,20451,37.49129514692246,126.9284949518018,가나어린이집,daycare center,서울특별시 관악구 당곡6길 16-3,"계단 또는 승강설비,대변기,소변기,장애인전용주차구역,주출입구 높이차이 제거,주출입구 접근로,출입구(문),해당시설 층수"
452,20452,37.53375816554905,127.12673099524638,가나어린이집(프라다어린이집),daycare center,서울특별시 강동구 풍성로37길  44-1,"대변기,소변기,장애인전용주차구역,주출입구 높이차이 제거,주출입구 접근로,출입구(문),해당시설 층수"
453,20453,37.52805550722462,127.03167694908873,가남빌딩,bank,서울특별시 강남구 압구정로36길  7,"계단 또는 승강설비,대변기,장애인전용주차구역,주출입구 높이차이 제거,주출입구 접근로,출입구(문),해당시설 층수"
454,20454,37.48812547644068,127.11105902340194,가동초등학교,elementary school,서울특별시 송파구 중대로24길 47,"객실 및 침실,경보 및 피난설비,계단 또는 승강설비,대변기,소변기,유도 및 안내 설비,장애인전용주차구역,점자블록,주출입구 높이차이 제거,주출입구 접근로,출입구(문),해당시설 층수"
455,20455,37.47861740585169,127.11910819954092,가든5  (Tool관이마트),concert hall,서울특별시 송파구 충민로 14,"경보 및 피난설비,대변기,일반사항,장애인전용주차구역,점자블록,주출입구 높이차이 제거,주출입구 접근로,출입구(문),해당시설 층수"
456,20456,37.47761304104853,127.1249628964426,가든5NC백화점(LIFE관),shopping,서울특별시 송파구 충민로 66,"계단 또는 승강설비,대변기,비치용품,일반사항,장애인전용주차구역,주출입구 높이차이 제거,주출입구 접근로,출입구(문),해당시설 층수"
457,20457,37.47761304104853,127.1249628964426,가든5 NC백화점(Life관),concert hall,서울특별시 송파구 충민로 66,"경보 및 피난설비,계단 또는 승강설비,대변기,일반사항,장애인전용주차구역,점자블록,주출입구 높이차이 제거,주출입구 접근로,출입구(문),해당시설 층수"
458,20458,37.47771627663118,127.12274717145617,가든5 Works관,factory,서울특별시 송파구 충민로 52,"대변기,소변기,일반사항,장애인전용주차구역,주출입구 높이차이 제거,주출입구 접근로,출입구(문)"
459,20459,37.57709511035866,126.98845297635955,가든타워,bank,서울특별시 종로구 율곡로 84,"계단 또는 승강설비,대변기,복도,일반사항,주출입구 높이차이 제거,주출입구 접근로,출입구(문),해당시설 층수"
460,20460,37.47861740585169,127.11910819954092,가든파이브(툴관 이마트),concert hall,서울특별시 송파구 충민로 10,"객실 및 침실,경보 및 피난설비,계단 또는 승강설비,관람석 및 열람석,대변기,매표소, 판매기, 음료대,복도,비치용품,세면대,소변기,유도 및 안내 설비,일반사항,장애인전용주차구역,점자블록,접수대 및 작업대,주출입구 높이차이 제거,주출입구 접근로,출입구(문),해당시설 층수"
461,20461,37.50035116792125,127.11016788375954,가락1동주민센터,community service center,서울특별시 송파구 송파대로 345,"경보 및 피난설비,계단 또는 승강설비,대변기,비치용품,일반사항,장애인전용주차구역,주출입구 높이차이 제거,주출입구 접근로,출입구(문),해당시설 층수"
462,20462,37.48812547644068,127.11105902340194,가락2동주민센터,community service center,서울특별시 송파구 중대로24길 6,"경보 및 피난설비,계단 또는 승강설비,대변기,비치용품,일반사항,장애인전용주차구역,주출입구 높이차이 제거,주출입구 접근로,출입구(문),해당시설 층수"
463,20463,37.495147643885275,127.12401959936,가락 ID타워,bank,서울특별시 송파구 중대로 145,"대변기,장애인전용주차구역,주출입구 높이차이 제거,주출입구 접근로,출입구(문),해당시설 층수"
464,20464,37.50107678328328,127.11642515434778,가락고등학교,high school,서울특별시 송파구 송이로 42,"객실 및 침실,경보 및 피난설비,계단 또는 승강설비,대변기,소변기,유도 및 안내 설비,장애인전용주차구역,점자블록,주출입구 높이차이 제거,주출입구 접근로,출입구(문),해당시설 층수"
465,20465,37.49385201617265,127.11873886928679,가락관광호텔,tourist hotel,서울특별시 송파구 송파대로28길 5,"객실 및 침실,경보 및 피난설비,관람석 및 열람석,대변기,세면대,소변기,장애인전용주차구역,주출입구 높이차이 제거,주출입구 접근로,출입구(문),해당시설 층수"
466,20466,37.501178477721965,127.11562914922732,가락동 성당,church,서울특별시 송파구 송파대로36길 34,"장애인전용주차구역,주출입구 높이차이 제거,주출입구 접근로,출입구(문)"
467,20467,37.49350574344606,127.119023282105,가락본동주민센터,community service center,서울특별시 송파구 송파대로28길 3,"경보 및 피난설비,계단 또는 승강설비,대변기,비치용품,일반사항,장애인전용주차구역,주출입구 높이차이 제거,주출입구 접근로,출입구(문),해당시설 층수"
468,20468,37.4983377257364,127.11642542522003,가락본센트레빌경노당,welfare/senior,서울특별시 송파구 송파대로32길 35,"대변기,소변기,장애인전용주차구역,주출입구 높이차이 제거,주출입구 접근로,출입구(문),해당시설 층수"
469,20469,37.49469876939962,127.1292251319032,가락쌍용1차아파트,welfare/senior,서울특별시 송파구 동남로 193,"대변기,소변기,일반사항,장애인전용주차구역,주출입구 높이차이 제거,주출입구 접근로,출입구(문),해당시설 층수"
470,20470,37.50248724297019,127.11875254289005,가락중학교,junior high school,서울특별시 송파구 송이로 45,"객실 및 침실,경보 및 피난설비,계단 또는 승강설비,대변기,소변기,유도 및 안내 설비,장애인전용주차구역,점자블록,주출입구 높이차이 제거,주출입구 접근로,출입구(문),해당시설 층수"
471,20471,37.49818447062468,127.12531381115006,가락지구대,police station,서울특별시 송파구 중대로 179,"경보 및 피난설비,계단 또는 승강설비,대변기,매표소, 판매기, 음료대,복도,일반사항,장애인전용주차구역,접수대 및 작업대,주출입구 높이차이 제거,주출입구 접근로,출입구(문),해당시설 층수"
472,20472,37.489949070269766,127.11110695298571,가락지구대,police station,서울특별시 송파구 중대로 17,"경보 및 피난설비,계단 또는 승강설비,대변기,장애인전용주차구역,주출입구 높이차이 제거,주출입구 접근로,출입구(문),해당시설 층수"
473,20473,37.536045597060756,126.85654698385434,가람어린이집,daycare center,서울특별시 강서구 곰달래로53길 112,"계단 또는 승강설비,대변기,소변기,장애인전용주차구역,주출입구 높이차이 제거,주출입구 접근로,출입구(문),해당시설 층수"
474,20474,37.43985338532556,126.90612944283873,가람요양센터,welfare/senior,서울특별시 금천구 시흥대로16길 34,"계단 또는 승강설비,대변기,소변기,장애인전용주차구역,주출입구 높이차이 제거,주출입구 접근로,출입구(문),해당시설 층수"
475,20475,37.48665195325718,126.93922288679367,가람유치원,daycare center,서울특별시 관악구 국회단지길  7,"계단 또는 승강설비,대변기,소변기,장애인전용주차구역,주출입구 높이차이 제거,주출입구 접근로,출입구(문),해당시설 층수"
476,20476,37.481609959749996,126.89347761709239,가리봉동주민센터,community service center,서울특별시 구로구 디지털로26길 5,"경보 및 피난설비,계단 또는 승강설비,대변기,매표소, 판매기, 음료대,비치용품,일반사항,장애인전용주차구역,접수대 및 작업대,주출입구 높이차이 제거,주출입구 접근로,출입구(문),해당시설 층수"
477,20477,37.47963090589312,126.89299201215302,가리봉치안센터,police station,서울특별시 구로구 남부순환로107가길 16,"경보 및 피난설비,계단 또는 승강설비,대변기,매표소, 판매기, 음료대,장애인전용주차구역,접수대 및 작업대,주출입구 높이차이 제거,주출입구 접근로,출입구(문),해당시설 층수"
478,20478,37.55076241738311,126.97550629168234,가브리엘의집,welfare/etc,서울특별시 용산구 후암로35길 22-23,"객실 및 침실,경보 및 피난설비,계단 또는 승강설비,관람석 및 열람석,대변기,매표소, 판매기, 음료대,복도,비치용품,샤워실 및 탈의실,세면대,소변기,욕실,유도 및 안내 설비,일반사항,점자블록,접수대 및 작업대,주출입구 높이차이 제거,주출입구 접근로,출입구(문),해당시설 층수"
479,20479,37.476677910195676,126.89557838568987,가산동 공영주차장,public parking,서울특별시 금천구 시흥대로153길 53,"장애인전용주차구역,주출입구 높이차이 제거,주출입구 접근로"
480,20480,37.47114018677096,126.90174484017898,가산동복합청사,government office building,서울특별시 금천구 가산로  12,"객실 및 침실,경보 및 피난설비,계단 또는 승강설비,대변기,매표소, 판매기, 음료대,비치용품,세면대,소변기,유도 및 안내 설비,장애인전용주차구역,점자블록,접수대 및 작업대,주출입구 높이차이 제거,주출입구 접근로,출입구(문),해당시설 층수"
481,20481,37.480228548185174,126.88102943728516,가산비즈니스센터,factory,서울특별시 금천구 가산디지털1로  165,"대변기,소변기,일반사항,장애인전용주차구역,주출입구 높이차이 제거,주출입구 접근로,출입구(문)"
482,20482,37.478438710079665,126.89381224534483,가산우체국,post office,서울특별시 금천구 남부순환로 1288,"경보 및 피난설비,대변기,매표소, 판매기, 음료대,장애인전용주차구역,접수대 및 작업대,주출입구 높이차이 제거,주출입구 접근로,출입구(문),해당시설 층수"
483,20483,37.468776876997694,126.89447703842292,가산중학교,junior high school,서울특별시 금천구 시흥대로115길 48,"객실 및 침실,경보 및 피난설비,계단 또는 승강설비,대변기,소변기,유도 및 안내 설비,일반사항,장애인전용주차구역,점자블록,주출입구 높이차이 제거,주출입구 접근로,출입구(문),해당시설 층수"
484,20484,37.49527039169989,126.99820425006982,가송빌딩,shopping/mart,서울특별시 서초구 서래로  3,"주출입구 높이차이 제거,주출입구 접근로,출입구(문)"
485,20485,37.52006344444976,127.10408838763014,가야금어린이공원,city park,서울특별시 송파구 오금로 21,"경보 및 피난설비,대변기,주출입구 접근로"
486,20486,37.65841718680861,127.03529079888436,가야옥,restaurant,서울특별시 도봉구 도당로   2,"장애인전용주차구역,주출입구 높이차이 제거,주출입구 접근로,출입구(문)"
487,20487,37.54083991216595,126.97232319812241,가야호텔,tourist hotel,서울특별시 용산구 한강대로 253,"객실 및 침실,경보 및 피난설비,계단 또는 승강설비,관람석 및 열람석,대변기,복도,세면대,소변기,일반사항,주출입구 높이차이 제거,주출입구 접근로,출입구(문),해당시설 층수"
488,20488,37.56948644775049,126.84470611694118,가양1동주민센터,community service center,서울특별시 강서구 허준로 34,"경보 및 피난설비,계단 또는 승강설비,대변기,매표소, 판매기, 음료대,비치용품,일반사항,장애인전용주차구역,접수대 및 작업대,주출입구 높이차이 제거,주출입구 접근로,출입구(문),해당시설 층수"
489,20489,37.57015828859776,126.84311545714687,가양2동주민센터,government office building,서울특별시 강서구 허준로  3,"객실 및 침실,경보 및 피난설비,계단 또는 승강설비,대변기,매표소, 판매기, 음료대,비치용품,세면대,소변기,유도 및 안내 설비,장애인전용주차구역,점자블록,접수대 및 작업대,주출입구 높이차이 제거,주출입구 접근로,출입구(문),해당시설 층수"
490,20490,37.57015828859776,126.84311545714687,가양2치안센터,police station,서울특별시 강서구 허준로 5,"경보 및 피난설비,계단 또는 승강설비,대변기,매표소, 판매기, 음료대,장애인전용주차구역,접수대 및 작업대,주출입구 높이차이 제거,주출입구 접근로,출입구(문),해당시설 층수"
491,20491,37.56108733613971,126.86055994789228,가양3동주민센터,community service center,서울특별시 강서구 허준로 202,"경보 및 피난설비,계단 또는 승강설비,대변기,매표소, 판매기, 음료대,비치용품,장애인전용주차구역,접수대 및 작업대,주출입구 높이차이 제거,주출입구 접근로,출입구(문),해당시설 층수"
492,20492,37.57234175862903,126.8400273415399,가양노인정,welfare/senior,서울특별시 강서구 양천로47나길 48-6,"계단 또는 승강설비,대변기,소변기,장애인전용주차구역,주출입구 높이차이 제거,주출입구 접근로,출입구(문),해당시설 층수"
493,20493,37.57015828859776,126.84311545714687,가양동우체국,post office,서울특별시 강서구 허준로 5-5,"경보 및 피난설비,대변기,매표소, 판매기, 음료대,비치용품,장애인전용주차구역,접수대 및 작업대,주출입구 높이차이 제거,주출입구 접근로,출입구(문),해당시설 층수"
494,20494,37.56074456759158,126.86023009734616,가양아이자람어린이집,daycare center,서울특별시 강서구 허준로 202-22,"계단 또는 승강설비,대변기,소변기,장애인전용주차구역,주출입구 높이차이 제거,주출입구 접근로,출입구(문),해당시설 층수"
495,20495,37.56386956873374,126.85165381486388,가양오피스텔,bank,서울특별시 강서구 양천로  443-32,"계단 또는 승강설비,대변기,장애인전용주차구역,주출입구 높이차이 제거,주출입구 접근로,출입구(문),해당시설 층수"
496,20496,37.573349377623146,126.80985504041766,가양이마트,education/job,서울특별시 강서구 양천로  55,"계단 또는 승강설비,대변기,소변기,일반사항,장애인전용주차구역,주출입구 높이차이 제거,주출입구 접근로,출입구(문),해당시설 층수"
497,20497,37.559247329257005,126.8501237447878,가양지구대,police station,서울특별시 강서구 화곡로65길  63,"경보 및 피난설비,대변기,매표소, 판매기, 음료대,장애인전용주차구역,접수대 및 작업대,주출입구 높이차이 제거,주출입구 접근로,출입구(문),해당시설 층수"
498,20498,37.570082881865375,126.84332389483164,가양프라자,hospital,서울특별시 강서구 허준로  18,"계단 또는 승강설비,대변기,장애인전용주차구역,주출입구 높이차이 제거,주출입구 접근로,출입구(문),해당시설 층수"
499,20499,37.5018836544897,127.0416587384707,가연타워,bank,서울특별시 강남구 테헤란로  232,"계단 또는 승강설비,대변기,일반사항,장애인전용주차구역,주출입구 높이차이 제거,주출입구 접근로,출입구(문),해당시설 층수"
500,20500,37.60662113388919,126.92004943868392,가온어린이집,daycare center,서울특별시 은평구 서오릉로9길 18,"계단 또는 승강설비,대변기,소변기,일반사항,장애인전용주차구역,주출입구 높이차이 제거,주출입구 접근로,출입구(문),해당시설 층수"
501,20501,37.495575862431025,127.14368768005482,가원어린이집,daycare center,서울특별시 송파구 오금로57길 22,"대변기,소변기,일반사항,장애인전용주차구역,주출입구 높이차이 제거,주출입구 접근로,출입구(문),해당시설 층수"
502,20502,37.49100029663955,127.12317145664264,가원중학교,junior high school,서울특별시 송파구 중대로 10길 40-18,"객실 및 침실,경보 및 피난설비,계단 또는 승강설비,대변기,소변기,유도 및 안내 설비,장애인전용주차구역,점자블록,주출입구 높이차이 제거,주출입구 접근로,출입구(문),해당시설 층수"
503,20503,37.56138007746137,126.90493137947816,가은빌딩,restaurant,서울특별시 마포구 월드컵로 155,"장애인전용주차구역,주출입구 높이차이 제거,주출입구 접근로,출입구(문)"
504,20504,37.65946699251388,127.04295247594304,가인초,elementary school,서울특별시 도봉구 도봉로136다길 4,"객실 및 침실,경보 및 피난설비,계단 또는 승강설비,대변기,소변기,유도 및 안내 설비,일반사항,장애인전용주차구역,점자블록,주출입구 높이차이 제거,주출입구 접근로,출입구(문),해당시설 층수"
505,20505,37.64872330040943,127.06696901126037,가재울근린공원,city park,서울특별시 노원구 덕릉로 541,"경보 및 피난설비,대변기,일반사항,주출입구 접근로"
506,20506,37.53049705079944,126.8436239550284,가족사랑노인요양병원,welfare/senior,서울특별시 강서구 곰달래로 97,"계단 또는 승강설비,대변기,소변기,장애인전용주차구역,주출입구 높이차이 제거,주출입구 접근로,출입구(문),해당시설 층수"
507,20507,37.61325917598021,127.0373307962207,가족사랑요양센터,welfare/senior,서울특별시 강북구 월계로 75,"계단 또는 승강설비,대변기,소변기,일반사항,장애인전용주차구역,주출입구 높이차이 제거,주출입구 접근로,출입구(문),해당시설 층수"
508,20508,37.498987789659814,126.89663749594438,가족천하,restaurant,서울특별시 영등포구 가마산로 334,"장애인전용주차구역,주출입구 높이차이 제거,주출입구 접근로,출입구(문)"
509,20509,37.57628459261109,126.9075161456799,가좌제일교회,church,서울특별시 서대문구 수색로8길  48-4,"장애인전용주차구역,주출입구 높이차이 제거,주출입구 접근로,출입구(문)"
510,20510,37.576040498926744,126.92403977434037,가좌지구대,police station,서울특별시 서대문구 가재울로4길 51,"경보 및 피난설비,대변기,매표소, 판매기, 음료대,일반사항,장애인전용주차구역,접수대 및 작업대,주출입구 높이차이 제거,주출입구 접근로,출입구(문),해당시설 층수"
511,20511,37.4947121949163,127.13335941723402,가주초등학교,elementary school,서울특별시 송파구 오금로44길 37,"객실 및 침실,경보 및 피난설비,계단 또는 승강설비,대변기,소변기,유도 및 안내 설비,장애인전용주차구역,점자블록,주출입구 높이차이 제거,주출입구 접근로,출입구(문),해당시설 층수"
512,20512,37.60583425300454,127.09608099491331,가천노인복지센터,welfare/senior,서울특별시 중랑구 신내로14길 13,"계단 또는 승강설비,대변기,소변기,장애인전용주차구역,주출입구 높이차이 제거,주출입구 접근로,출입구(문),해당시설 층수"
513,20513,37.58490178849815,127.00476873943298,가톨릭대학교 성신교정,university,서울특별시 종로구 창경궁로 296-12,"객실 및 침실,경보 및 피난설비,계단 또는 승강설비,대변기,소변기,유도 및 안내 설비,장애인전용주차구역,점자블록,주출입구 높이차이 제거,주출입구 접근로,출입구(문),해당시설 층수"
514,20514,37.5681713323579,127.03256777655544,가톨릭 서울형 데이케어센터,welfare/senior,서울특별시 성동구 무학로14길 21,"계단 또는 승강설비,대변기,소변기,장애인전용주차구역,주출입구 높이차이 제거,주출입구 접근로,출입구(문),해당시설 층수"
515,20515,37.55599704904587,126.92144353744224,가톨릭청년센터,training facility/urban,서울특별시 마포구 월드컵북로2길 4,"객실 및 침실,계단 또는 승강설비,관람석 및 열람석,대변기,세면대,소변기,일반사항,장애인전용주차구역,주출입구 높이차이 제거,주출입구 접근로,출입구(문),해당시설 층수"
516,20516,37.48359682248521,127.02969084058829,가호외교센터,government office building,서울특별시 서초구 남부순환로  2558,"객실 및 침실,경보 및 피난설비,계단 또는 승강설비,대변기,매표소, 판매기, 음료대,비치용품,세면대,소변기,유도 및 안내 설비,일반사항,장애인전용주차구역,점자블록,접수대 및 작업대,주출입구 높이차이 제거,주출입구 접근로,출입구(문),해당시설 층수"
517,20517,37.543000136123396,127.05460837928868,가화빌딩,education/job,서울특별시 성동구 연무장7길  4,"계단 또는 승강설비,대변기,소변기,일반사항,장애인전용주차구역,주출입구 높이차이 제거,주출입구 접근로,출입구(문),해당시설 층수"
518,20518,37.66282505417616,127.03439072959162,가화정신병원,hospital,서울특별시 도봉구 도당로  51,"객실 및 침실,경보 및 피난설비,계단 또는 승강설비,대변기,세면대,소변기,유도 및 안내 설비,장애인전용주차구역,점자블록,주출입구 높이차이 제거,주출입구 접근로,출입구(문),해당시설 층수"
519,20519,37.58004995575243,126.98478902543641,가회동주민센터,community service center,서울특별시 종로구 북촌로  35,"경보 및 피난설비,계단 또는 승강설비,대변기,매표소, 판매기, 음료대,비치용품,일반사항,장애인전용주차구역,접수대 및 작업대,주출입구 높이차이 제거,주출입구 접근로,출입구(문),해당시설 층수"
520,20520,37.57397635736325,127.04631295265763,간데메공원,city park,서울특별시 동대문구 서울시립대로2길 5,"경보 및 피난설비,대변기,일반사항,주출입구 접근로"
521,20521,37.62388890925167,126.91662810713845,갈곡리어린이공원 화장실,toilet/public,서울특별시 은평구 갈현로41길  3,"경보 및 피난설비,대변기,세면대,소변기,일반사항,주출입구 높이차이 제거,주출입구 접근로,출입구(문)"
522,20522,37.498271186161695,127.03429250565385,갈라빌딩,bank,서울특별시 강남구 논현로85길  46,"계단 또는 승강설비,대변기,일반사항,장애인전용주차구역,주출입구 높이차이 제거,주출입구 접근로,출입구(문),해당시설 층수"
523,20523,37.6664944546174,127.05234575576299,갈말근린공원,city park,서울특별시 노원구 동일로227길 85,"경보 및 피난설비,대변기,일반사항,주출입구 접근로"
524,20524,37.531090458081444,126.83999782479789,갈보리교회,church,서울특별시 강서구 곰달래로19가길 38-11,"장애인전용주차구역,주출입구 높이차이 제거,주출입구 접근로,출입구(문)"
525,20525,37.65939647804163,127.07567788063382,갈비둥지 상계역점,restaurant,서울특별시 노원구 덕릉로 692,"장애인전용주차구역,주출입구 높이차이 제거,주출입구 접근로,출입구(문)"
526,20526,37.48500509217781,127.03310602161191,갈비사랑,restaurant,서울특별시 서초구 강남대로  244,"장애인전용주차구역,주출입구 높이차이 제거,주출입구 접근로,출입구(문)"
527,20527,37.512372284348366,126.87022862994779,갈산초등학교,elementary school,서울특별시 양천구 목동로 31,"객실 및 침실,경보 및 피난설비,계단 또는 승강설비,대변기,소변기,유도 및 안내 설비,장애인전용주차구역,점자블록,주출입구 높이차이 제거,주출입구 접근로,출입구(문),해당시설 층수"
528,20528,37.66682183816852,127.06103706879075,갈울근린공원,city park,서울특별시 노원구 상계동 644,"경보 및 피난설비,대변기,주출입구 접근로"
529,20529,37.54630715713435,126.97223970207321,갈월동 업무시설,bank,서울특별시 용산구 한강대로  314,"계단 또는 승강설비,대변기,복도,일반사항,주출입구 높이차이 제거,주출입구 접근로,출입구(문),해당시설 층수"
530,20530,37.540443543983244,126.97263111446705,갈월동 오피스(한진중공업),bank,서울특별시 용산구 한강대로71길 4,"계단 또는 승강설비,대변기,복도,일반사항,주출입구 높이차이 제거,주출입구 접근로,출입구(문),해당시설 층수"
531,20531,37.5457743450545,126.97482444506555,갈월동 종합사회복지관,welfare/disabled,서울특별시 용산구 두텁바위로 25,"객실 및 침실,경보 및 피난설비,계단 또는 승강설비,관람석 및 열람석,대변기,매표소, 판매기, 음료대,복도,비치용품,샤워실 및 탈의실,세면대,소변기,욕실,유도 및 안내 설비,일반사항,점자블록,접수대 및 작업대,주출입구 높이차이 제거,주출입구 접근로,출입구(문),해당시설 층수"
532,20532,37.626766560126185,126.91907177076321,갈현1동주민센터,community service center,서울특별시 은평구 갈현로 341,"경보 및 피난설비,계단 또는 승강설비,대변기,매표소, 판매기, 음료대,비치용품,일반사항,장애인전용주차구역,접수대 및 작업대,주출입구 높이차이 제거,주출입구 접근로,출입구(문),해당시설 층수"
533,20533,37.61867699461269,126.9157776128383,갈현2동 주민센터,community service center,서울특별시 은평구 연서로27길 31-6,"경보 및 피난설비,계단 또는 승강설비,대변기,매표소, 판매기, 음료대,비치용품,일반사항,장애인전용주차구역,접수대 및 작업대,주출입구 높이차이 제거,주출입구 접근로,출입구(문),해당시설 층수"
534,20534,37.62251609988027,126.91704649201053,갈현교회,church,서울특별시 은평구 갈현로  286,"장애인전용주차구역,주출입구 높이차이 제거,주출입구 접근로,출입구(문)"
535,20535,37.619780445876835,126.91668253428513,갈현초등학교,elementary school,서울특별시 은평구 연서로29길 31,"객실 및 침실,경보 및 피난설비,계단 또는 승강설비,대변기,복도,소변기,유도 및 안내 설비,일반사항,장애인전용주차구역,점자블록,주출입구 높이차이 제거,주출입구 접근로,출입구(문),해당시설 층수"
536,20536,37.55988863170387,126.92036197782647,감나무집(카프치료공동체),welfare/senior,서울특별시 마포구 연남로1길50-8 (연남동),"계단 또는 승강설비,대변기,복도,소변기,일반사항,장애인전용주차구역,주출입구 높이차이 제거,주출입구 접근로,출입구(문),해당시설 층수"
537,20537,37.567917394743624,126.9618904430341,감리교신학대학교,university,서울특별시 서대문구 독립문로 56,"객실 및 침실,경보 및 피난설비,계단 또는 승강설비,대변기,소변기,유도 및 안내 설비,장애인전용주차구역,점자블록,주출입구 높이차이 제거,주출입구 접근로,출입구(문),해당시설 층수"
538,20538,37.587142530798005,126.98444791828496,감사원,government office building,서울특별시 종로구 북촌로 112,"객실 및 침실,경보 및 피난설비,계단 또는 승강설비,대변기,매표소, 판매기, 음료대,복도,비치용품,세면대,소변기,유도 및 안내 설비,일반사항,점자블록,접수대 및 작업대,주출입구 높이차이 제거,주출입구 접근로,출입구(문),해당시설 층수"
539,20539,37.526786508317464,127.03309280060512,감자바우,restaurant,서울특별시 강남구 언주로 855,"장애인전용주차구역,주출입구 높이차이 제거,주출입구 접근로,출입구(문)"
540,20540,37.47951408984022,126.88751109358344,갑을그레이트밸리,factory,서울특별시 금천구 디지털로9길 32,"대변기,소변기,일반사항,장애인전용주차구역,주출입구 높이차이 제거,주출입구 접근로,출입구(문)"
541,20541,37.477704626550576,126.91785350660135,갑을복지재단 재활센터,welfare/disabled,서울특별시 관악구 난우16길 13-7,"객실 및 침실,경보 및 피난설비,계단 또는 승강설비,관람석 및 열람석,대변기,매표소, 판매기, 음료대,복도,비치용품,샤워실 및 탈의실,세면대,소변기,욕실,유도 및 안내 설비,일반사항,장애인전용주차구역,점자블록,접수대 및 작업대,주출입구 높이차이 제거,주출입구 접근로,출입구(문),해당시설 층수"
542,20542,37.59473698412759,127.09240704113529,갑을오피스텔,bank,서울특별시 중랑구 상봉로23길 12,"계단 또는 승강설비,대변기,장애인전용주차구역,주출입구 높이차이 제거,주출입구 접근로,출입구(문),해당시설 층수"
543,20543,37.67384475742321,127.05603262178302,강강술래,restaurant,서울특별시 노원구 동일로 1628,"장애인전용주차구역,주출입구 높이차이 제거,주출입구 접근로,출입구(문)"
544,20544,37.49415376846139,127.0394787700777,강강술래,restaurant,서울특별시 강남구 논현로  325,"장애인전용주차구역,주출입구 높이차이 제거,주출입구 접근로,출입구(문)"
545,20545,37.496564351083066,127.02877320469665,강남8258빌딩,bank,서울특별시 강남구 강남대로  376,"계단 또는 승강설비,대변기,일반사항,장애인전용주차구역,주출입구 높이차이 제거,주출입구 접근로,출입구(문),해당시설 층수"
546,20546,37.494697139637346,127.03007971188332,강남 S캠퍼스 강의실(한국벤쳐타워),education/job,서울특별시 강남구 강남대로78길 8,"계단 또는 승강설비,대변기,소변기,일반사항,장애인전용주차구역,주출입구 높이차이 제거,주출입구 접근로,출입구(문),해당시설 층수"
547,20547,37.51056404565398,127.03583636427611,강남YMCA,bank,서울특별시 강남구 언주로  615,"계단 또는 승강설비,대변기,장애인전용주차구역,주출입구 높이차이 제거,주출입구 접근로,출입구(문),해당시설 층수"
548,20548,37.49828674392239,127.03010376906612,강남경찰서,government office building,서울특별시 강남구 테헤란로 114-11,"객실 및 침실,경보 및 피난설비,계단 또는 승강설비,대변기,매표소, 판매기, 음료대,비치용품,세면대,소변기,유도 및 안내 설비,일반사항,장애인전용주차구역,점자블록,접수대 및 작업대,주출입구 높이차이 제거,주출입구 접근로,출입구(문),해당시설 층수"
549,20549,37.499258722956334,127.06763144450534,강남경희한방병원,hospital,서울특별시 강남구 영동대로 225,"객실 및 침실,경보 및 피난설비,계단 또는 승강설비,대변기,세면대,소변기,유도 및 안내 설비,장애인전용주차구역,점자블록,주출입구 높이차이 제거,주출입구 접근로,출입구(문),해당시설 층수"
550,20550,37.51465441946527,127.04668347201208,강남교육청,government office building,서울특별시 강남구 선릉로116길 57,"객실 및 침실,경보 및 피난설비,계단 또는 승강설비,대변기,매표소, 판매기, 음료대,비치용품,세면대,소변기,유도 및 안내 설비,일반사항,장애인전용주차구역,점자블록,접수대 및 작업대,주출입구 높이차이 제거,주출입구 접근로,출입구(문),해당시설 층수"
551,20551,37.55007420677666,126.8522107732496,강남교회,church,서울특별시 강서구 까치산로  144,"장애인전용주차구역,주출입구 높이차이 제거,주출입구 접근로,출입구(문)"
552,20552,37.4938869965801,127.06427037461494,강남구 구민회관,government office building,서울특별시 강남구 삼성로 154,"객실 및 침실,경보 및 피난설비,계단 또는 승강설비,대변기,매표소, 판매기, 음료대,비치용품,세면대,소변기,유도 및 안내 설비,일반사항,장애인전용주차구역,점자블록,접수대 및 작업대,주출입구 높이차이 제거,주출입구 접근로,출입구(문),해당시설 층수"
553,20553,37.515909937615156,127.05214085484478,강남구 노인복지관,welfare/senior,서울특별시 강남구 삼성로 628,"계단 또는 승강설비,대변기,소변기,장애인전용주차구역,주출입구 높이차이 제거,주출입구 접근로,출입구(문),해당시설 층수"
554,20554,37.47711631051694,127.0518877801983,강남구민체육관,gym,서울특별시 강남구 개포로28길 47,"소변기,장애인전용주차구역,주출입구 높이차이 제거,주출입구 접근로,출입구(문)"
555,20555,37.5081633230797,127.02319946881117,강남구 재활용센터,bank,서울특별시 강남구 강남대로 514,"계단 또는 승강설비,대변기,일반사항,장애인전용주차구역,주출입구 높이차이 제거,주출입구 접근로,출입구(문),해당시설 층수"
556,20556,37.482845878577564,127.07937075395105,강남구 직업재활센터,welfare/disabled,서울특별시 강남구 광평로64길 22,"객실 및 침실,경보 및 피난설비,계단 또는 승강설비,관람석 및 열람석,대변기,매표소, 판매기, 음료대,복도,비치용품,샤워실 및 탈의실,세면대,소변기,욕실,유도 및 안내 설비,일반사항,장애인전용주차구역,점자블록,접수대 및 작업대,주출입구 높이차이 제거,주출입구 접근로,출입구(문),해당시설 층수"
557,20557,37.51796635867662,127.0470610826737,강남구청,government office building,서울특별시 강남구 학동로 426,"객실 및 침실,경보 및 피난설비,계단 또는 승강설비,대변기,매표소, 판매기, 음료대,비치용품,세면대,소변기,유도 및 안내 설비,일반사항,장애인전용주차구역,점자블록,접수대 및 작업대,주출입구 높이차이 제거,주출입구 접근로,출입구(문),해당시설 층수"
558,20558,37.51796635867662,127.0470610826737,강남구청직장어린이집(증축),daycare center,서울특별시 강남구 학동로 426,"계단 또는 승강설비,대변기,소변기,장애인전용주차구역,주출입구 높이차이 제거,주출입구 접근로,출입구(문),해당시설 층수"
559,20559,37.48576104004319,127.03617276339044,강남대성 양재학원,restaurant,서울특별시 강남구 남부순환로355길  12,"장애인전용주차구역,주출입구 높이차이 제거,주출입구 접근로,출입구(문)"
560,20560,37.51465441946527,127.04668347201208,강남도서관,library,서울특별시 강남구 선릉로116길 57,"계단 또는 승강설비,관람석 및 열람석,대변기,세면대,소변기,일반사항,장애인전용주차구역,접수대 및 작업대,주출입구 높이차이 제거,주출입구 접근로,출입구(문),해당시설 층수"
561,20561,37.49364657131347,127.06232066899774,강남메가스터디학원,education/job,서울특별시 강남구 남부순환로 2942,"계단 또는 승강설비,대변기,소변기,일반사항,장애인전용주차구역,주출입구 높이차이 제거,주출입구 접근로,출입구(문),해당시설 층수"
562,20562,37.49828674392239,127.03010376906612,강남면허시험장,government office building,서울특별시 강남구 테헤란로 114-23,"객실 및 침실,경보 및 피난설비,계단 또는 승강설비,대변기,매표소, 판매기, 음료대,비치용품,세면대,소변기,유도 및 안내 설비,일반사항,장애인전용주차구역,점자블록,접수대 및 작업대,주출입구 높이차이 제거,주출입구 접근로,출입구(문),해당시설 층수"
563,20563,37.515909937615156,127.05214085484478,강남보건소,government office building,서울특별시 강남구 삼성로 628,"객실 및 침실,경보 및 피난설비,계단 또는 승강설비,대변기,매표소, 판매기, 음료대,비치용품,세면대,소변기,유도 및 안내 설비,일반사항,장애인전용주차구역,점자블록,접수대 및 작업대,주출입구 높이차이 제거,주출입구 접근로,출입구(문),해당시설 층수"
564,20564,37.49979227332784,127.06736051142869,강남비타에듀학원(경일빌딩),education/job,서울특별시 강남구 영동대로 231,"계단 또는 승강설비,대변기,소변기,일반사항,장애인전용주차구역,주출입구 높이차이 제거,주출입구 접근로,출입구(문),해당시설 층수"
565,20565,37.50239181369626,127.00586275297857,강남성모병원 ,general hospital,서울특별시 서초구 반포대로  222,"객실 및 침실,경보 및 피난설비,계단 또는 승강설비,대변기,세면대,소변기,유도 및 안내 설비,일반사항,장애인전용주차구역,점자블록,주출입구 높이차이 제거,주출입구 접근로,출입구(문),해당시설 층수"
566,20566,37.49324928585317,126.90867252953285,강남성심병원,general hospital,서울특별시 영등포구 신길로 1,"객실 및 침실,경보 및 피난설비,계단 또는 승강설비,대변기,세면대,소변기,유도 및 안내 설비,일반사항,장애인전용주차구역,점자블록,주출입구 높이차이 제거,주출입구 접근로,출입구(문),해당시설 층수"
567,20567,37.49324928585317,126.90867252953285,강남성심병원별관,hospital,서울특별시 영등포구 신길로 1-2,"객실 및 침실,경보 및 피난설비,계단 또는 승강설비,대변기,세면대,소변기,유도 및 안내 설비,일반사항,장애인전용주차구역,점자블록,주출입구 높이차이 제거,주출입구 접근로,출입구(문),해당시설 층수"
568,20568,37.492806984645476,127.04631254186798,강남세브란스,general hospital,서울특별시 강남구 언주로 211,"객실 및 침실,경보 및 피난설비,계단 또는 승강설비,대변기,세면대,소변기,유도 및 안내 설비,일반사항,장애인전용주차구역,점자블록,주출입구 높이차이 제거,주출입구 접근로,출입구(문),해당시설 층수"
569,20569,37.49745463197192,127.02841619521278,강남센터 빌딩,education/job,서울특별시 강남구 강남대로 388,"계단 또는 승강설비,대변기,소변기,일반사항,장애인전용주차구역,주출입구 높이차이 제거,주출입구 접근로,출입구(문),해당시설 층수"
570,20570,37.488442739819604,127.10298161907208,강남센트럴요양병원,hospital,서울특별시 강남구 광평로51길 6-,"객실 및 침실,경보 및 피난설비,계단 또는 승강설비,대변기,세면대,소변기,유도 및 안내 설비,장애인전용주차구역,점자블록,주출입구 높이차이 제거,주출입구 접근로,출입구(문),해당시설 층수"
571,20571,37.510280274235605,127.06683155493928,강남소방서,government office building,서울특별시 강남구 테헤란로 629,"객실 및 침실,경보 및 피난설비,계단 또는 승강설비,대변기,매표소, 판매기, 음료대,비치용품,세면대,소변기,유도 및 안내 설비,일반사항,장애인전용주차구역,점자블록,접수대 및 작업대,주출입구 높이차이 제거,주출입구 접근로,출입구(문),해당시설 층수"
572,20572,37.483421790556875,127.04706201994426,강남수도사업소,government office building,서울특별시 강남구 양재천로 199,"객실 및 침실,경보 및 피난설비,계단 또는 승강설비,대변기,매표소, 판매기, 음료대,비치용품,세면대,소변기,유도 및 안내 설비,장애인전용주차구역,점자블록,접수대 및 작업대,주출입구 높이차이 제거,주출입구 접근로,출입구(문),해당시설 층수"
573,20573,37.48899213062119,127.10528001613349,강남스포츠문화센터,health center,서울특별시 강남구 밤고개로1길  52,"경보 및 피난설비,계단 또는 승강설비,대변기,매표소, 판매기, 음료대,일반사항,장애인전용주차구역,접수대 및 작업대,주출입구 높이차이 제거,주출입구 접근로,출입구(문),해당시설 층수"
574,20574,37.49674526052697,127.02570189338667,강남아르누보씨티,bank,서울특별시 서초구 서초대로74길 4,"계단 또는 승강설비,대변기,일반사항,장애인전용주차구역,주출입구 높이차이 제거,주출입구 접근로,출입구(문),해당시설 층수"
575,20575,37.48500509217781,127.03310602161191,강남아이에스빌딩,hospital,서울특별시 서초구 강남대로  241,"계단 또는 승강설비,대변기,장애인전용주차구역,주출입구 높이차이 제거,주출입구 접근로,출입구(문),해당시설 층수"
576,20576,37.50092617282953,127.02455884532186,강남오피스텔,education/job,서울특별시 서초구 서초대로73길 44,"계단 또는 승강설비,대변기,소변기,일반사항,장애인전용주차구역,주출입구 높이차이 제거,주출입구 접근로,출입구(문),해당시설 층수"
577,20577,37.483012059804665,127.0156435366434,강남요양병원,hospital,서울특별시 서초구 서초중앙로 17,"객실 및 침실,경보 및 피난설비,계단 또는 승강설비,대변기,세면대,소변기,유도 및 안내 설비,일반사항,장애인전용주차구역,점자블록,주출입구 높이차이 제거,주출입구 접근로,출입구(문),해당시설 층수"
578,20578,37.48662096239367,126.90349297447858,강남웨딩문화원 구로공단점,meeting hall,서울특별시 영등포구 시흥대로 599,"계단 또는 승강설비,대변기,장애인전용주차구역,주출입구 높이차이 제거,주출입구 접근로,출입구(문),해당시설 층수"
579,20579,37.52093356291416,127.03321238635245,강남을지병원,general hospital,서울특별시 강남구 도산대로 242,"객실 및 침실,경보 및 피난설비,계단 또는 승강설비,대변기,세면대,소변기,유도 및 안내 설비,일반사항,장애인전용주차구역,점자블록,주출입구 높이차이 제거,주출입구 접근로,출입구(문),해당시설 층수"
580,20580,37.48375492387575,126.90694740759447,강남일교회,church,서울특별시 관악구 조원로11길  6,"장애인전용주차구역,주출입구 높이차이 제거,주출입구 접근로,출입구(문)"
581,20581,37.47590023990217,127.04687641779682,강남자이 비뇨기과 병원,hospital,서울특별시 강남구 논현로 64,"객실 및 침실,경보 및 피난설비,계단 또는 승강설비,대변기,세면대,소변기,유도 및 안내 설비,장애인전용주차구역,점자블록,주출입구 높이차이 제거,주출입구 접근로,출입구(문),해당시설 층수"
582,20582,37.49471831292079,127.0834994877244,강남장애인복지관,welfare/disabled,서울특별시 강남구 개포로 645,"객실 및 침실,경보 및 피난설비,계단 또는 승강설비,관람석 및 열람석,대변기,매표소, 판매기, 음료대,복도,비치용품,샤워실 및 탈의실,세면대,소변기,욕실,유도 및 안내 설비,일반사항,장애인전용주차구역,점자블록,접수대 및 작업대,주출입구 높이차이 제거,주출입구 접근로,출입구(문),해당시설 층수"
583,20583,37.49882402195938,127.02899120036562,강남제일빌딩,hospital,서울특별시 강남구 테헤란로 109,"계단 또는 승강설비,대변기,일반사항,장애인전용주차구역,주출입구 높이차이 제거,주출입구 접근로,출입구(문),해당시설 층수"
584,20584,37.50379235863543,127.06144695778346,강남 종로학원,education/job,서울특별시 강남구 역삼로 534,"계단 또는 승강설비,대변기,소변기,장애인전용주차구역,주출입구 높이차이 제거,주출입구 접근로,출입구(문),해당시설 층수"
585,20585,37.49198231160321,127.07346872881213,강남종합사회복지관,welfare/etc,서울특별시 강남구 개포로 605,"객실 및 침실,경보 및 피난설비,계단 또는 승강설비,관람석 및 열람석,대변기,매표소, 판매기, 음료대,복도,비치용품,샤워실 및 탈의실,세면대,소변기,욕실,유도 및 안내 설비,장애인전용주차구역,점자블록,접수대 및 작업대,주출입구 높이차이 제거,주출입구 접근로,출입구(문),해당시설 층수"
586,20586,37.50664250841547,127.09504440283199,강남중앙교회,education/job,서울특별시 송파구 석촌호수로 162,"대변기,소변기,일반사항,장애인전용주차구역,주출입구 높이차이 제거,주출입구 접근로,출입구(문),해당시설 층수"
587,20587,37.502898125780575,126.92529011409133,강남중학교,junior high school,서울특별시 동작구 대방동15길 2,"객실 및 침실,경보 및 피난설비,계단 또는 승강설비,대변기,소변기,유도 및 안내 설비,일반사항,장애인전용주차구역,점자블록,주출입구 높이차이 제거,주출입구 접근로,출입구(문),해당시설 층수"
588,20588,37.50002125602344,127.02599252571657,강남지웰타워2,hospital,서울특별시 서초구 서초대로77길 24,"계단 또는 승강설비,대변기,일반사항,장애인전용주차구역,주출입구 높이차이 제거,주출입구 접근로,출입구(문),해당시설 층수"
589,20589,37.49967436796754,127.02981029439557,강남청솔학원,education/job,서울특별시 강남구 강남대로94길 30,"계단 또는 승강설비,대변기,소변기,일반사항,장애인전용주차구역,주출입구 높이차이 제거,주출입구 접근로,출입구(문),해당시설 층수"
590,20590,37.50615976583719,126.95335800978279,강남초등학교,elementary school,서울특별시 동작구 강남초등길 15,"객실 및 침실,경보 및 피난설비,계단 또는 승강설비,대변기,소변기,유도 및 안내 설비,일반사항,장애인전용주차구역,점자블록,주출입구 높이차이 제거,주출입구 접근로,출입구(문),해당시설 층수"
591,20591,37.481322864298825,126.94959719986629,강남초이스병원,hospital,서울특별시 관악구 남부순환로 1796,"객실 및 침실,경보 및 피난설비,계단 또는 승강설비,대변기,세면대,소변기,유도 및 안내 설비,일반사항,장애인전용주차구역,점자블록,주출입구 높이차이 제거,주출입구 접근로,출입구(문),해당시설 층수"
592,20592,37.51322144136963,127.03150327639419,강남컨벤션 헤리츠,meeting hall,서울특별시 강남구 논현로 662,"계단 또는 승강설비,대변기,일반사항,장애인전용주차구역,주출입구 높이차이 제거,주출입구 접근로,출입구(문),해당시설 층수"
593,20593,37.50002568178363,127.03650986522962,강남 파이낸스센터,bank,서울특별시 강남구 테헤란로  152,"계단 또는 승강설비,대변기,일반사항,장애인전용주차구역,주출입구 높이차이 제거,주출입구 접근로,출입구(문),해당시설 층수"
594,20594,37.48480910325962,127.03768287572724,강남피타워,education/job,서울특별시 서초구 남부순환로 2624,"계단 또는 승강설비,대변기,소변기,장애인전용주차구역,주출입구 높이차이 제거,주출입구 접근로,출입구(문),해당시설 층수"
595,20595,37.5023891093389,127.02594810924923,강남한일빌딩,education/job,서울특별시 강남구 강남대로 446,"계단 또는 승강설비,대변기,소변기,일반사항,장애인전용주차구역,주출입구 높이차이 제거,주출입구 접근로,출입구(문),해당시설 층수"
596,20596,37.48197974824912,126.9437175115591,강남효병원(고암빌딩),hospital,서울특별시 관악구 남부순환로  1744,"객실 및 침실,경보 및 피난설비,계단 또는 승강설비,대변기,세면대,소변기,유도 및 안내 설비,일반사항,장애인전용주차구역,점자블록,주출입구 높이차이 제거,주출입구 접근로,출입구(문),해당시설 층수"
597,20597,37.50285793198585,127.0245459067766,강님태영데시앙루브,bank,서울특별시 서초구 강남대로 455,"계단 또는 승강설비,대변기,일반사항,장애인전용주차구역,주출입구 높이차이 제거,주출입구 접근로,출입구(문),해당시설 층수"
598,20598,37.52942863490895,127.12439763555929,강동경찰서,government office building,서울특별시 강동구 성내로 33,"객실 및 침실,경보 및 피난설비,계단 또는 승강설비,대변기,매표소, 판매기, 음료대,비치용품,세면대,소변기,유도 및 안내 설비,일반사항,장애인전용주차구역,점자블록,접수대 및 작업대,주출입구 높이차이 제거,주출입구 접근로,출입구(문),해당시설 층수"
599,20599,37.55316900838627,127.15696209240659,강동경희대학교병원,general hospital,서울특별시 강동구 동남로 892,"객실 및 침실,경보 및 피난설비,계단 또는 승강설비,대변기,세면대,소변기,유도 및 안내 설비,장애인전용주차구역,점자블록,주출입구 높이차이 제거,주출입구 접근로,출입구(문),해당시설 층수"
600,20600,37.54573222509285,127.14122198343267,강동구민회관,daycare center,서울특별시 강동구 상암로 168,"계단 또는 승강설비,대변기,소변기,장애인전용주차구역,주출입구 높이차이 제거,주출입구 접근로,출입구(문),해당시설 층수"
601,20601,37.52953550484336,127.12557893333309,강동구보건소,government office building,서울특별시 강동구 성내로 45,"객실 및 침실,경보 및 피난설비,계단 또는 승강설비,대변기,매표소, 판매기, 음료대,비치용품,세면대,소변기,유도 및 안내 설비,일반사항,장애인전용주차구역,점자블록,접수대 및 작업대,주출입구 높이차이 제거,주출입구 접근로,출입구(문),해당시설 층수"
602,20602,37.52863726946222,127.12636483155926,강동구의회의사당,government office building,서울특별시 강동구 성내로 55,"객실 및 침실,경보 및 피난설비,계단 또는 승강설비,대변기,매표소, 판매기, 음료대,비치용품,세면대,소변기,유도 및 안내 설비,일반사항,장애인전용주차구역,점자블록,접수대 및 작업대,주출입구 높이차이 제거,주출입구 접근로,출입구(문),해당시설 층수"
603,20603,37.53016088364412,127.1237924476467,강동구청,government office building,서울특별시 강동구 성내로 25,"객실 및 침실,경보 및 피난설비,계단 또는 승강설비,대변기,매표소, 판매기, 음료대,비치용품,세면대,소변기,유도 및 안내 설비,일반사항,장애인전용주차구역,점자블록,접수대 및 작업대,주출입구 높이차이 제거,주출입구 접근로,출입구(문),해당시설 층수"
604,20604,37.53016088364412,127.1237924476467,강동구청 별관,government office building,서울특별시 강동구 성내로 25,"객실 및 침실,경보 및 피난설비,계단 또는 승강설비,대변기,매표소, 판매기, 음료대,비치용품,세면대,소변기,유도 및 안내 설비,일반사항,장애인전용주차구역,점자블록,접수대 및 작업대,주출입구 높이차이 제거,주출입구 접근로,출입구(문),해당시설 층수"
605,20605,37.53047942723778,127.12245797454796,강동구청성내1동별관,government office building,서울특별시 강동구 성내로 13,"객실 및 침실,경보 및 피난설비,계단 또는 승강설비,대변기,매표소, 판매기, 음료대,비치용품,세면대,소변기,유도 및 안내 설비,일반사항,장애인전용주차구역,점자블록,접수대 및 작업대,주출입구 높이차이 제거,주출입구 접근로,출입구(문),해당시설 층수"
606,20606,37.53088226055886,127.12324153539656,강동구청 성안별관,government office building,서울특별시 강동구 성내로3가길 1,"객실 및 침실,경보 및 피난설비,계단 또는 승강설비,대변기,매표소, 판매기, 음료대,비치용품,세면대,소변기,유도 및 안내 설비,일반사항,장애인전용주차구역,점자블록,접수대 및 작업대,주출입구 높이차이 제거,주출입구 접근로,출입구(문),해당시설 층수"
607,20607,37.55220983389774,127.15461975924298,강동노인종합복지관,welfare/senior,서울특별시 강동구 동남로71길 32-5,"계단 또는 승강설비,대변기,소변기,일반사항,장애인전용주차구역,주출입구 높이차이 제거,주출입구 접근로,출입구(문),해당시설 층수"
608,20608,37.5458543610752,127.12219343387456,강동노인회관,welfare/senior,서울특별시 강동구 천중로4길 144,"계단 또는 승강설비,대변기,소변기,일반사항,장애인전용주차구역,주출입구 높이차이 제거,주출입구 접근로,출입구(문),해당시설 층수"
609,20609,37.53775994142496,127.13527354281811,강동대세빌딩,bank,서울특별시 강동구 성안로  163,"계단 또는 승강설비,대변기,일반사항,장애인전용주차구역,주출입구 높이차이 제거,주출입구 접근로,출입구(문),해당시설 층수"
610,20610,37.53855346530887,127.14088710399922,강동 도서관,library,서울특별시 강동구 양재대로116길 6,"계단 또는 승강설비,관람석 및 열람석,대변기,비치용품,세면대,소변기,일반사항,장애인전용주차구역,접수대 및 작업대,주출입구 높이차이 제거,주출입구 접근로,출입구(문),해당시설 층수"
611,20611,37.5351413199334,127.14612597437468,강동미르사랑 데이케어센터,welfare/etc,서울특별시 강동구 천호대로 1214,"객실 및 침실,경보 및 피난설비,관람석 및 열람석,대변기,매표소, 판매기, 음료대,복도,비치용품,샤워실 및 탈의실,세면대,소변기,욕실,유도 및 안내 설비,일반사항,장애인전용주차구역,점자블록,접수대 및 작업대,주출입구 높이차이 제거,주출입구 접근로,출입구(문),해당시설 층수"
612,20612,37.5381321156947,127.12794228262275,강동미즈문화센터,hospital,서울특별시 강동구 천호대로159길 14,"객실 및 침실,경보 및 피난설비,계단 또는 승강설비,대변기,세면대,소변기,유도 및 안내 설비,일반사항,장애인전용주차구역,점자블록,주출입구 높이차이 제거,주출입구 접근로,출입구(문),해당시설 층수"
613,20613,37.53762377614473,127.12810434483015,강동미즈여성병원,hospital,서울특별시 강동구 천호대로 1043,"객실 및 침실,경보 및 피난설비,계단 또는 승강설비,대변기,세면대,소변기,유도 및 안내 설비,일반사항,장애인전용주차구역,점자블록,주출입구 높이차이 제거,주출입구 접근로,출입구(문),해당시설 층수"
614,20614,37.53789531215723,127.12695976420504,강동빌딩,bank,서울특별시 강동구 천호대로 1033,"계단 또는 승강설비,대변기,장애인전용주차구역,주출입구 높이차이 제거,주출입구 접근로,출입구(문),해당시설 층수"
615,20615,37.53789531215723,127.12695976420504,강동빌딩,hospital,서울특별시 강동구 천호대로 1033,"계단 또는 승강설비,대변기,일반사항,장애인전용주차구역,주출입구 높이차이 제거,주출입구 접근로,출입구(문),해당시설 층수"
616,20616,37.54628379744635,127.1710789986094,강동상떼빌,bank,서울특별시 강동구 천호대로  1465,"계단 또는 승강설비,대변기,장애인전용주차구역,주출입구 높이차이 제거,주출입구 접근로,출입구(문),해당시설 층수"
617,20617,37.53415482276767,127.1393355845343,강동성모병원,general hospital,서울특별시 강동구 천호대로 1151,"객실 및 침실,경보 및 피난설비,계단 또는 승강설비,대변기,세면대,소변기,유도 및 안내 설비,장애인전용주차구역,점자블록,주출입구 높이차이 제거,주출입구 접근로,출입구(문),해당시설 층수"
618,20618,37.534381580374976,127.13958491755734,강동성모요양병원(별관),hospital,서울특별시 강동구 진황도로 124,"객실 및 침실,경보 및 피난설비,계단 또는 승강설비,대변기,세면대,소변기,유도 및 안내 설비,일반사항,장애인전용주차구역,점자블록,주출입구 높이차이 제거,주출입구 접근로,출입구(문),해당시설 층수"
619,20619,37.5345619297196,127.1394585349871,강동성모요양병원(신관),hospital,서울특별시 강동구 진황도로  122,"객실 및 침실,경보 및 피난설비,계단 또는 승강설비,대변기,세면대,소변기,유도 및 안내 설비,일반사항,장애인전용주차구역,점자블록,주출입구 높이차이 제거,주출입구 접근로,출입구(문),해당시설 층수"
620,20620,37.53375816554905,127.12673099524638,강동성서침례교회(공빌딩),church,서울특별시 강동구 풍성로37길 44,"장애인전용주차구역,주출입구 높이차이 제거,주출입구 접근로,출입구(문)"
621,20621,37.536876802689,127.13541224755609,강동성심병원,general hospital,서울특별시 강동구 성안로  154,"계단 또는 승강설비,대변기,세면대,소변기,장애인전용주차구역,점자블록,주출입구 높이차이 제거,주출입구 접근로,출입구(문),해당시설 층수"
622,20622,37.53553120035989,127.13655029762201,강동성심병원3별관,bank,서울특별시 강동구 천호대로175길 15,"계단 또는 승강설비,대변기,일반사항,장애인전용주차구역,주출입구 높이차이 제거,주출입구 접근로,출입구(문),해당시설 층수"
623,20623,37.535849160736106,127.13584938674082,강동성심병원별관,bank,서울특별시 강동구 천호대로173길 18,"계단 또는 승강설비,대변기,장애인전용주차구역,주출입구 높이차이 제거,주출입구 접근로,출입구(문),해당시설 층수"
624,20624,37.526689753714074,127.1135009467124,강동세무서,government office building,서울특별시 송파구 강동대로 62,"객실 및 침실,경보 및 피난설비,계단 또는 승강설비,대변기,매표소, 판매기, 음료대,비치용품,세면대,소변기,유도 및 안내 설비,장애인전용주차구역,점자블록,접수대 및 작업대,주출입구 높이차이 제거,주출입구 접근로,출입구(문),해당시설 층수"
625,20625,37.554973625485026,127.12789863921495,강동실버케어,welfare/senior,서울특별시 강동구 고덕로 25,"계단 또는 승강설비,대변기,소변기,장애인전용주차구역,주출입구 높이차이 제거,주출입구 접근로,출입구(문),해당시설 층수"
626,20626,37.53398418095145,127.1341941475822,강동아너스빌오피스텔,bank,서울특별시 강동구 양재대로103길 70,"계단 또는 승강설비,대변기,장애인전용주차구역,주출입구 높이차이 제거,주출입구 접근로,출입구(문),해당시설 층수"
627,20627,37.55322568932634,127.13751962209318,강동아이슐레,daycare center,서울특별시 강동구 고덕로24가길 36,"계단 또는 승강설비,대변기,소변기,장애인전용주차구역,주출입구 높이차이 제거,주출입구 접근로,출입구(문),해당시설 층수"
628,20628,37.55121874364865,127.15734276969656,강동아트센터,meeting hall,서울특별시 강동구 동남로 874,"계단 또는 승강설비,대변기,일반사항,장애인전용주차구역,주출입구 높이차이 제거,주출입구 접근로,출입구(문),해당시설 층수"
629,20629,37.529196455554455,127.1224060983123,강동어린이회관,outdoor theater,서울특별시 강동구 성내로6길 16,"대변기,일반사항,장애인전용주차구역,주출입구 높이차이 제거,주출입구 접근로,출입구(문)"
630,20630,37.55086482953683,127.12812700386782,강동연세내과,hospital,서울특별시 강동구 올림픽로  782,"계단 또는 승강설비,대변기,일반사항,장애인전용주차구역,주출입구 높이차이 제거,주출입구 접근로,출입구(문),해당시설 층수"
631,20631,37.54731263907467,127.12688067923253,강동연세병원,hospital,서울특별시 강동구 올림픽로 742,"객실 및 침실,경보 및 피난설비,계단 또는 승강설비,대변기,세면대,소변기,유도 및 안내 설비,일반사항,장애인전용주차구역,점자블록,주출입구 높이차이 제거,주출입구 접근로,출입구(문),해당시설 층수"
632,20632,37.53637037365218,127.14893888008915,강동요양치료데이케어센터,welfare/senior,서울특별시 강동구 천호대로 1243,"대변기,소변기,일반사항,장애인전용주차구역,주출입구 높이차이 제거,주출입구 접근로,출입구(문),해당시설 층수"
633,20633,37.5363774663454,127.14320473409843,강동우체국,post office,서울특별시 강동구 양재대로112길 57,"경보 및 피난설비,계단 또는 승강설비,대변기,매표소, 판매기, 음료대,비치용품,일반사항,장애인전용주차구역,접수대 및 작업대,주출입구 높이차이 제거,주출입구 접근로,출입구(문),해당시설 층수"
634,20634,37.55890314189612,127.16984477524556,강동유정유치원,kindergarten,서울특별시 강동구 상일로,"계단 또는 승강설비,대변기,소변기,장애인전용주차구역,주출입구 높이차이 제거,주출입구 접근로,출입구(문),해당시설 층수"
635,20635,37.535109061554316,127.1369568410384,강동전화국,telecommunication office,서울특별시 강동구 천호대로175길 3,"대변기,비치용품,일반사항,장애인전용주차구역,주출입구 높이차이 제거,주출입구 접근로,출입구(문)"
636,20636,37.52783298095731,127.12692008205535,강동정비사업소,public parking,서울특별시 강동구 성내로 64,"장애인전용주차구역,주출입구 높이차이 제거,주출입구 접근로"
637,20637,37.54636479284892,127.13018785802105,강동초등학교,elementary school,서울특별시 강동구 상암로14길 77,"경보 및 피난설비,계단 또는 승강설비,대변기,소변기,장애인전용주차구역,점자블록,주출입구 높이차이 제거,주출입구 접근로,출입구(문),해당시설 층수"
638,20638,37.54443657103185,127.14273583806998,강동한방병원,hospital,서울특별시 강동구 양재대로  1556,"객실 및 침실,경보 및 피난설비,계단 또는 승강설비,대변기,세면대,소변기,유도 및 안내 설비,일반사항,장애인전용주차구역,점자블록,주출입구 높이차이 제거,주출입구 접근로,출입구(문),해당시설 층수"
639,20639,37.53919576955877,127.13401339706388,강동한신휴플러스,shopping,서울특별시 강동구 진황도로 ,"계단 또는 승강설비,대변기,일반사항,장애인전용주차구역,주출입구 높이차이 제거,주출입구 접근로,출입구(문),해당시설 층수"
640,20640,37.581251167577406,126.97127121993546,강락빌딩,hospital,서울특별시 종로구 자하문로 58,"계단 또는 승강설비,대변기,일반사항,장애인전용주차구역,주출입구 높이차이 제거,주출입구 접근로,출입구(문),해당시설 층수"
641,20641,37.53534975799908,127.09340630830067,강변역지너스타워,hospital,서울특별시 광진구 강변역로4길 14,"계단 또는 승강설비,대변기,장애인전용주차구역,주출입구 높이차이 제거,주출입구 접근로,출입구(문),해당시설 층수"
642,20642,37.53393136876112,127.09137705615382,강변케어센터,welfare/senior,서울특별시 광진구 구의강변로  35,"계단 또는 승강설비,대변기,소변기,일반사항,장애인전용주차구역,주출입구 높이차이 제거,주출입구 접근로,출입구(문),해당시설 층수"
643,20643,37.556905356676836,126.86560631329338,강변한솔솔파크(관리동),apartment subsidiary facility,서울특별시 강서구 양천로63길  28,"계단 또는 승강설비,대변기,세면대,소변기,주출입구 높이차이 제거,주출입구 접근로,출입구(문),해당시설 층수"
