,place_name,place_address,lat,lon,category,place_id
0,A아트홀(구.신연아트홀),서울특별시 종로구 동숭동 1-37,37.583268700000005,127.002443,movie/concerthall,10000
1,BBC씨어터,서울특별시 강남구 신사동  568-2,37.5239298,127.0251432,movie/concerthall,10001
2,BREAK OUT 전용극장,서울특별시 종로구 관철동 33-1,37.5688354,126.988123,movie/concerthall,10002
3,BYRDS(버즈),서울특별시 마포구 와우산로 51,37.54910039999999,126.92286010000001,movie/concerthall,10003
4,Between the Bars,서울특별시 마포구 어울마당로 114,37.554833200000004,126.9232125,movie/concerthall,10004
5,CGV 강남,서울특별시 강남구 역삼동 814-6 스타플렉스 4-11층,37.501621,127.0263906,movie/concerthall,10005
6,CGV 명동,서울특별시 중구 명동2가 83-5 눈스퀘어 8층,37.5634244,126.9829197,movie/concerthall,10006
7,CGV 상암,서울특별시 마포구 월드컵로 240,37.569950899999995,126.899029,movie/concerthall,10007
8,CGV 송파,서울특별시 송파구 문정동 294 가든파이브 라이프 YOUNG관 10층,37.4787378,127.1211166,movie/concerthall,10008
9,CGV강변,서울특별시 강동구 성내로 48,37.528451700000005,127.1253784,movie/concerthall,10009
10,CGV구로,서울특별시 구로구 구로중앙로 152,37.5011769,126.8828472,movie/concerthall,10010
11,CGV군자,서울특별시 광진구 능동로  289,37.5558098,127.0783645,movie/concerthall,10011
12,CGV대학로,서울특별시 종로구 새문안로 75,37.570650799999996,126.9729916,movie/concerthall,10012
13,CGV목동,서울특별시 양천구 목동동로 257,37.5265922,126.8744517,movie/concerthall,10013
14,CGV불광,서울특별시 은평구 불광로  20,37.60974,126.92896809999999,movie/concerthall,10014
15,CGV신촌아트레온,서울특별시 서대문구 신촌로  129,37.556540399999996,126.9402938,movie/concerthall,10015
16,CGV신한카드아트홀(구 CGV팝아트홀),서울특별시 영등포구 영등포동 4가 442번지 타임스퀘어내 CGV팝아트홀 7층,37.5170517,126.90333319999999,movie/concerthall,10016
17,CGV압구정,서울특별시 강남구 압구정로30길  45,37.5243665,127.0294163,movie/concerthall,10017
18,CGV영등포,서울특별시 영등포구 여의공원로 101,37.529261299999995,126.9249062,movie/concerthall,10018
19,CLUB ANSWER,서울특별시 강남구 청담동 125-16,37.525151,127.0519996,movie/concerthall,10019
20,CLUB mASS,서울특별시 서초구 서초4동 1306-8번지 대동빌딩 B1,37.499552200000004,127.02630790000002,movie/concerthall,10020
21,GS타워 소극장,서울특별시 강남구 역삼1동 679-1 GS타워 25층,37.5015494,127.03731770000002,movie/concerthall,10021
22,JW 메리어트호텔 그랜드볼룸,서울특별시 서초구 반포동 19-3 메리어트호텔,37.504322200000004,127.00353829999999,movie/concerthall,10022
23,LG아트센터,서울특별시 강남구 논현로  508,37.5019921,127.03735220000002,movie/concerthall,10023
24,LIG아트홀,서울특별시 강남구 테헤란로  117,37.49920529999999,127.0302669,movie/concerthall,10024
25,LIG아트홀(강남),서울특별시 강남구 역삼동 649-11 LIG타워 LIG아트홀,37.499200099999996,127.0302844,movie/concerthall,10025
26,OTM청담아트홀 (구KS청담홀),서울특별시 강남구 청담동 86번지 I 빌딩 3층,37.5238931,127.0396447,movie/concerthall,10026
27,Question Hall,서울특별시 강남구 청담동 125-16,37.525151,127.0519996,movie/concerthall,10027
28,강남 동양아트홀,서울특별시 강남구 논현동 1-3 렉스타워 지하 1층,37.5162624,127.0206477,movie/concerthall,10028
29,강북 정동 난타 전용관,서울특별시 중구 정동 22번지 경향신문사 건물 1층,37.5681627,126.9699713,movie/concerthall,10029
30,건국대학교 국제회의장,서울특별시 광진구 능동로 120 (화양동),37.5438883,127.07595459999999,movie/concerthall,10030
31,건국대학교 새천년관 대공연장,서울특별시 광진구 능동로 120 (화양동),37.5438883,127.07595459999999,movie/concerthall,10031
32,경희대학교 평화의전당,서울특별시 동대문구 회기동 1번지,37.596493200000005,127.0525006,movie/concerthall,10032
33,고려대학교 노천극장 (화정체육관),서울특별시 성북구 안암동 고려대학교 (안암로 145),,,movie/concerthall,10033
34,고려대학교 화정체육관,서울특별시 성북구 안암동 고려대학교 (안암로 145),,,movie/concerthall,10034
35,광화문 아트홀,서울특별시 종로구 도서관1길 15 (사직동 284-1),,,movie/concerthall,10035
36,국립국악원,서울특별시 서초구 서초동 남부순환로 2364,,,movie/concerthall,10036
37,국립극장,서울특별시 중구 장충동2가 14-67번지,37.5529157,127.00006680000001,movie/concerthall,10037
38,국립중앙박물관 극장 용,서울특별시 용산구 용산동 6가 168-6번지,37.5202471,126.9824662,movie/concerthall,10038
39,그랜드 앰배서더 서울 그랜드 볼룸,서울특별시 중구 장충동 2가 186-54,37.5601325,127.00231000000001,movie/concerthall,10039
40,그랜드하얏트서울 그랜드볼룸,서울특별시 용산구 한남동 747-7,37.53955,126.9977202,movie/concerthall,10040
41,그랜드힐튼호텔 컨벤션홀,서울특별시 서대문구 연희로 353,37.5885865,126.934996,movie/concerthall,10041
42,금호아트홀,서울특별시 종로구 대명길 28,37.58347070000001,126.99985490000002,movie/concerthall,10042
43,꽃비,서울특별시 마포구 독막로 9길14,37.5489641,126.9199129,movie/concerthall,10043
44,나루아트센터,서울특별시 광진구 능동로 76 (자양동),37.5374246,127.070453,movie/concerthall,10044
45,난타전용관(강북정동),서울특별시 중구 정동 22번지,37.5681627,126.9699713,movie/concerthall,10045
46,난타전용관(명동),서울특별시 중구 명동 2가 50-14 유네스코빌딩 3층,37.5634602,126.98375190000002,movie/concerthall,10046
47,난타전용관(홍대),"서울특별시 마포구 양화로16길 29 옐로우다이아몬드 지하 2,3층",37.553188,126.92118020000001,movie/concerthall,10047
48,남산예술센터,서울특별시 중구 소파로 138 (예장동 8-19),37.5587774,126.98824840000002,movie/concerthall,10048
49,대안극장,서울특별시 마포구 와우산로 155-1,37.5549807,126.93003440000001,movie/concerthall,10049
50,대학로 SH 아트홀,서울특별시 종로구 동숭동 1-131,37.57992279999999,127.0034942,movie/concerthall,10050
51,대학로 갈갈이 콘서트홀,서울특별시 종로구 동숭동 1-100,37.580999299999995,127.0035152,movie/concerthall,10051
52,대학로 단막극장,서울특별시 종로구 동숭동 12-6,37.5833237,127.0045875,movie/concerthall,10052
53,대학로 마로니에 소극장,서울특별시 종로구 동숭동 130-47,37.580599,127.0045801,movie/concerthall,10053
54,대학로 씨어터 SH,서울특별시 종로구 동숭동 1-131,37.57992279999999,127.0034942,movie/concerthall,10054
55,대학로 씨어터 디아더,서울특별시 종로구 동숭동 1-132,37.5801275,127.00349920000001,movie/concerthall,10055
56,대학로 아리랑 소극장,서울특별시 종로구 동숭동 1-153,37.5800107,127.004254,movie/concerthall,10056
57,대학로 아티스탄홀,서울특별시 종로구 동숭동 1-35 아티스탄홀,37.5831041,127.0020841,movie/concerthall,10057
58,대학로 어뮤징 씨어터,서울특별시 종로구 동숭동 1-145 대학빌딩 5층,37.5807835,127.0041587,movie/concerthall,10058
59,대학로 우리네극장,서울특별시 종로구 동숭동 1-145,37.5807835,127.0041587,movie/concerthall,10059
60,대학로 웃찾사 전용관(구.Boom Box),서울특별시 종로구 동숭동 1-113번지 지하 1층,37.5815943,127.0028104,movie/concerthall,10060
61,대학로예술극장,서울특별시 종로구 대학로10길 17,37.582072499999995,127.0031764,movie/concerthall,10061
62,대한극장,서울특별시 중구 청파로 463,37.559878499999996,126.9671041,movie/concerthall,10062
63,도깨비스톰 전용관,서울특별시 중구 정동 22,37.5681627,126.9699713,movie/concerthall,10063
64,동숭아트센터,서울특별시 종로구 동숭길 122,37.5837122,127.0037278,movie/concerthall,10064
65,동영아트홀 (구 계몽아트홀),서울특별시 강남구 역삼동 772,37.497800399999996,127.0441092,movie/concerthall,10065
66,디마떼오홀,서울특별시 종로구 동숭동 1-141,37.5801365,127.0039895,movie/concerthall,10066
67,떼아뜨르 추,서울특별시 마포구 어울마당로 94-8,37.553135100000006,126.92222050000001,movie/concerthall,10067
68,라트어린이극장,서울특별시 강남구 도곡동 514-1,37.484263399999996,127.0421783,movie/concerthall,10068
69,레진코믹스 브이홀,서울특별시 마포구 홍익로 25 서교호텔별관 지하,37.554415000000006,126.92196609999999,movie/concerthall,10069
70,롤링홀,서울특별시 마포구 어울마당로 35 신보빌딩B1,37.5484994,126.9201265,movie/concerthall,10070
71,롯데몰 김포공항점,서울특별시 강서구 하늘길  38,37.571369399999995,126.80296000000001,movie/concerthall,10071
72,롯데백화점 노원점,서울특별시 노원구 동일로 1414,37.655043400000004,127.06109709999998,movie/concerthall,10072
73,롯데시네마 강동,서울특별시 강동구 천호옛길 85,37.5366479,127.1253571,movie/concerthall,10073
74,롯데시네마 강동관,서울특별시 강동구 성내동 44-1,37.536654999999996,127.125348,movie/concerthall,10074
75,롯데시네마 건대입구관,서울특별시 광진구 아차산로 262 (자양동),37.537510499999996,127.0725939,movie/concerthall,10075
76,롯데시네마 누리꿈(상암),서울특별시 마포구 월드컵북로 396 누리꿈스퀘어빌딩 디지털파빌리온 4층,37.579179100000005,126.8903547,movie/concerthall,10076
77,롯데시네마 롯데월드,서울특별시 송파구 잠실동 40-1,37.5112793,127.09804270000001,movie/concerthall,10077
78,롯데시네마 브로드웨이,서울특별시 강남구 도산대로8길 8,37.5163809,127.021971,movie/concerthall,10078
79,롯데시네마 씨티(강남),서울특별시 강남구 역삼동 816,37.5003768,127.0269314,movie/concerthall,10079
80,롯데시네마 에비뉴엘(명동),"서울특별시 중구 소공동 에비뉴엘 6층, 7층",,,movie/concerthall,10080
81,롯데시네마 피카디리,서울특별시 종로구 돈화문로 134-2,,,movie/concerthall,10081
82,롯데시네마 피카디리관,서울특별시 종로구 돈의동 137,37.571043700000004,126.9912115,movie/concerthall,10082
83,롯데시네마 합정,서울특별시 마포구 양화로 45,37.548932799999996,126.91367439999999,movie/concerthall,10083
84,롯데시네마 홍대입구,서울특별시 마포구 양화로  176,37.5572394,126.9249811,movie/concerthall,10084
85,롯데시네마 홍대입구관,서울특별시 마포구 양화로 176 스타피카소 8~11층,37.5572394,126.9249811,movie/concerthall,10085
86,롯데시네마 황학,서울특별시 중구 황학동 2545 롯데캐슬 베네치아 1층 1222~4호,37.571029100000004,127.0212194,movie/concerthall,10086
87,롯데월드 예술극장,서울특별시 송파구 잠실동 40-1,37.5112793,127.09804270000001,movie/concerthall,10087
88,루나틱전용관,서울특별시 종로구 동숭동 1-150 지하1층,37.580126299999996,127.0042551,movie/concerthall,10088
89,르네상스 서울호텔,서울특별시 강남구 역삼동 676번지 3층,37.5032294,127.04149840000002,movie/concerthall,10089
90,르메이에르 씨어터,서울특별시 종로구 동숭동 1-145 대학빌딩 B1,37.5807835,127.0041587,movie/concerthall,10090
91,리츠칼튼 서울호텔 그랜드볼룸,"서울특별시 강남구 역삼동 602, The Ritz-Carlton, Seoul",37.504867100000006,127.0268226,movie/concerthall,10091
92,마포아트센터,서울특별시 마포구 대흥로20길   28,37.5499041,126.9455277,movie/concerthall,10092
93,메가박스 강남,서울특별시 서초구 서초동 1317-20 아라타워 8층 씨너스 강남,37.4979429,127.0265303,movie/concerthall,10093
94,메가박스 동대문,서울특별시 중구 을지로6가 21,37.5658032,127.0074043,movie/concerthall,10094
95,메가박스 목동,서울특별시 양천구 목동동로 309,37.529139799999996,126.87601740000001,movie/concerthall,10095
96,메가박스 상봉,서울특별시 중랑구 망우로30길 3,37.593086299999996,127.0747635,movie/concerthall,10096
97,메가박스 센트럴,서울특별시 서초구 반포4동 19-3 센트럴시티 내 지하층,37.504322200000004,127.00353829999999,movie/concerthall,10097
98,메가박스 수유,서울특별시 강북구 도봉로 399,37.6424093,127.0298017,movie/concerthall,10098
99,메가박스 신촌,서울특별시 서대문구 신촌역로  30,37.559830700000006,126.9423898,movie/concerthall,10099
100,메가박스 아트나인,서울특별시 동작구 동작대로 89,37.4848049,126.98168500000001,movie/concerthall,10100
101,메가박스 코엑스,서울특별시 강남구 삼성동 159,37.512487799999995,127.058853,movie/concerthall,10101
102,명동 난타 전용관,서울특별시 중구 명동2가 50-14 유네스코빌딩 3층,37.5634602,126.98375190000002,movie/concerthall,10102
103,명동예술극장,서울특별시 중구 명동길 35 명동예술극장,37.564057,126.9841854,movie/concerthall,10103
104,명보아트홀,서울특별시 중구 초동 18-5,37.5647012,126.99321509999999,movie/concerthall,10104
105,명월관,서울특별시 마포구 와우산로19길 6-5,37.5514818,126.9228095,movie/concerthall,10105
106,모차르트홀,서울특별시 서초구 서초3동 1515-3번지 모차르트빌딩 2층,37.486433899999994,127.00455159999999,movie/concerthall,10106
107,목동아이스링크,서울특별시 양천구 목1동 914,37.530525399999995,126.88169690000001,movie/concerthall,10107
108,문예회관소극장,서울특별시 종로구 동숭동 1-130,37.5799333,127.00289699999999,movie/concerthall,10108
109,문화일보홀,서울특별시 중구 충정로 1가 68번지 문화일보홀,37.5671176,126.96867350000001,movie/concerthall,10109
110,뮤지컬 샤우트 전용극장,서울특별시 종로구 동숭동 1-145번지 대학빌딩 지하1층,37.5807835,127.0041587,movie/concerthall,10110
111,뮤지컬 전용 극장 - 씨어터 S,서울특별시 용산구 청파동2가 53-12 숙명여자대학교 내,37.5460352,126.96492140000001,movie/concerthall,10111
112,뮤지컬 전용관 팝콘하우스,서울특별시 중구 정동 8-11 (구 정동이벤트홀),37.5658696,126.972876,movie/concerthall,10112
113,민속극장 풍류,서울특별시 강남구 삼성동 112-2 한국문화재보호재단,37.510234999999994,127.0446673,movie/concerthall,10113
114,밀레니엄서울힐튼호텔 컨벤션센터,서울특별시 중구 남대문로 5가 395,37.5554016,126.9753825,movie/concerthall,10114
115,백암아트홀,서울특별시 강남구 삼성동 170-5 백암아트홀,37.5105408,127.065929,movie/concerthall,10115
116,벨벳 바나나 클럽,서울특별시 마포구 홍익로3길 44 호곡빌딩 지하1층,37.55258920000001,126.92143119999999,movie/concerthall,10116
117,비보이를 사랑한 발레리나 전용극장(쇼비보이),서울특별시 중구 정동 22 경향신문사 사옥 경향아트힐 3층,37.5681627,126.9699713,movie/concerthall,10117
118,산울림소극장,서울특별시 마포구 와우산로 157 지하 1층 소극장 산울림,37.5550895,126.93010690000001,movie/concerthall,10118
119,삼성동 섬유센터 이벤트홀,서울특별시 강남구 대치동 944-31,37.5074584,127.0606539,movie/concerthall,10119
120,삼일로 창고극장,서울특별시 중구 저동1가 20-6,37.563453100000004,126.9879054,movie/concerthall,10120
121,상상마당 라이브홀,서울특별시 마포구 어울마당로 65,37.55094879999999,126.92106580000001,movie/concerthall,10121
122,샘터파랑새극장,서울특별시 종로구 동숭동 1-115,37.5815515,127.0023436,movie/concerthall,10122
123,샤롯데씨어터,서울특별시 송파구 잠실동 41-1번지,37.5119444,127.1009753,movie/concerthall,10123
124,서강대학교 메리홀,서울특별시 마포구 백범로 35 서강대학교 커뮤니케이션센터 메리홀 105호,37.5517132,126.9410634,movie/concerthall,10124
125,서울 신라호텔 다이너스티홀,서울특별시 중구 장충동2가 202,37.5568322,127.0063426,movie/concerthall,10125
126,서울 잠실 학생체육관,서울특별시 송파구 잠실1동 10-3 종합운동장 내,37.5121532,127.0754598,movie/concerthall,10126
127,서울교육문화회관 대극장,서울특별시 서초구 양재2동 202번지,37.4669827,127.03253959999999,movie/concerthall,10127
128,서울극장,서울특별시 종로구 세종대로 175,37.572185,126.97686609999998,movie/concerthall,10128
129,서울놀이마당,서울특별시 송파구 잠실동 47번지,37.5077131,127.10058300000001,movie/concerthall,10129
130,서울바로크챔버홀(구 DS홀),서울특별시 서초구 서초3동 1450-2 DSI빌딩 3층,37.4817324,127.01450849999999,movie/concerthall,10130
131,서울애니시네마,서울특별시 중구 예장동8-145,37.5584252,126.9879469,movie/concerthall,10131
132,서울열린극장 창동,서울특별시 도봉구 창4동 1-6번지,37.6582055,127.0508212,movie/concerthall,10132
133,서울패션아트홀,서울특별시 중구 신당동 251-7번지 서울패션센터 5층 서울패션아트홀,37.567161,127.01213200000001,movie/concerthall,10133
134,서초아트홀,서울특별시 서초구 반포4동 51-5 대동빌딩 B1,37.5010915,127.0116146,movie/concerthall,10134
135,세라믹팔레스홀,서울특별시 강남구 일원동 713,37.4857831,127.08235330000001,movie/concerthall,10135
136,세실극장,서울특별시 중구 정동 3-7 제일화재 세실극장,37.566759399999995,126.976001,movie/concerthall,10136
137,세익스피어 극장,서울특별시 종로구 동숭동 1-147,37.580551299999996,127.0042271,movie/concerthall,10137
138,세종대학교 대양홀,서울특별시 광진구 능동로 209 (군자동),37.5514706,127.073884,movie/concerthall,10138
139,세종문화회관,서울특별시 종로구 이화장길 26,37.5764761,127.0039365,movie/concerthall,10139
140,센트럴시티 밀레니엄홀,서울특별시 서초구 반포동 19-3,37.504322200000004,127.00353829999999,movie/concerthall,10140
141,소공동 롯데호텔 크리스탈볼룸,서울특별시 중구 소공동 1번지 롯데호텔 2층,37.5646602,126.98095330000001,movie/concerthall,10141
142,소극장 다르게놀자(구.하늘땅 소극장),서울특별시 종로구 동숭동 1-153,37.5800107,127.004254,movie/concerthall,10142
143,소극장 예,서울특별시 마포구 잔다리로6길 5 김유광 신경정신과 B1,37.552127500000005,126.9194697,movie/concerthall,10143
144,송파 청소년 수련관,서울특별시 송파구 문정동 150-8,37.48957720000001,127.1107344,movie/concerthall,10144
145,숙명아트센터 씨어터S,서울특별시 용산구 청파로 47길 100 숙명여자대학교 르네상스플라자 3층,37.5459469,126.96457779999999,movie/concerthall,10145
146,숭실대학교 한경직기념관 대강당,서울특별시 동작구 상도로369 숭실대학교,37.496251799999996,126.95731509999999,movie/concerthall,10146
147,쉐라톤그랜드워커힐호텔 워커힐씨어터,서울특별시 광진구 워커힐로 177 (광장동),37.5586439,127.1117098,movie/concerthall,10147
148,스폰지하우스(광화문),서울특별시 중구 태평로1가 61-21,37.5680265,126.97593810000001,movie/concerthall,10148
149,시티렉스(CT-LEX),서울특별시 금천구 시흥대로 399,37.4692769,126.89707630000001,movie/concerthall,10149
150,실험극장 반줄,서울특별시 종로구 관철동 12-16,37.5690805,126.9861783,movie/concerthall,10150
151,씽크아트홀,서울특별시 서초구 반포동 19-4 센트럴시티 파미에파크 2층,37.5055717,127.0071375,movie/concerthall,10151
152,아르코(ArKo)예술극장,서울특별시 종로구 동숭동 1-111,37.5811843,127.0029436,movie/concerthall,10152
153,아르코예술극장,서울특별시 종로구 동숭동 1-111,37.5811843,127.0029436,movie/concerthall,10153
154,아트홀 맥,서울특별시 마포구 대흥로 20길28,37.5499041,126.9455277,movie/concerthall,10154
155,아티움,서울특별시 강남구 봉은사로  524,37.51289860000001,127.0571338,movie/concerthall,10155
156,알과핵 소극장,서울특별시 종로구 동숭동 1-140 (마로니에유리빌딩지하1층),37.579938299999995,127.003689,movie/concerthall,10156
157,암사어린이극장,서울특별시 강동구 암사동116-22 (암사동 선사유적지 근처),37.5634651,127.13338459999999,movie/concerthall,10157
158,압구정 예홀,서울특별시 강남구 신사동 640-2 로빈명풍관 지하1층,37.5278631,127.0362481,movie/concerthall,10158
159,압구정클럽,서울특별시 강남구 신사동 640-2,37.5278631,127.0362481,movie/concerthall,10159
160,야마하아티스트서비스서울(삼성동),서울특별시 강남구 삼성동 159 코엑스 1층,37.512487799999995,127.058853,movie/concerthall,10160
161,양재동 aT센터(농수산물유통공사),서울특별시 서초구 양재동 232번지 aT센터,37.4681722,127.03932250000001,movie/concerthall,10161
162,역삼1문화센터,서울특별시 강남구 역삼동 829-20,37.4952786,127.03324099999999,movie/concerthall,10162
163,연세대학교 노천극장,서울특별시 서대문구 연세로 50 연세대학교 노천극장,37.564936700000004,126.9383335,movie/concerthall,10163
164,연세대학교 대강당,서울특별시 서대문구 연세로 50 연세대학교 대강당,37.564936700000004,126.9383335,movie/concerthall,10164
165,연세대학교 백양홀 (구 백주년기념관),서울특별시 서대문구 연세로 50 연세대학교 백주년기념관,37.564936700000004,126.9383335,movie/concerthall,10165
166,영산아트홀,서울특별시 영등포구 영중로  15,37.5172195,126.90392949999999,movie/concerthall,10166
167,예림당아트홀,서울특별시 강남구 역삼동 772 웅진 씽크빅 아트홀 2층,37.497800399999996,127.0441092,movie/concerthall,10167
168,예술마당,서울특별시 종로구 돈화문로5가길 1,37.5710325,126.9912412,movie/concerthall,10168
169,예술의 전당,서울특별시 서초구 서초동 700,37.4810878,127.0152555,movie/concerthall,10169
170,예지원,서울특별시 중구 장충동2가 201-6,37.5514816,127.00255829999999,movie/concerthall,10170
171,오리지널 드로잉쇼 전용관,서울특별시 중구 정동 22 경향신문사 본관 3층 경향아트힐 6관,37.5681627,126.9699713,movie/concerthall,10171
172,오아시스 극장,서울특별시 종로구 동숭동 1-133 드라마하우스 3층,37.5803257,127.00350390000001,movie/concerthall,10172
173,오퍼스아트홀(구 압구정동 발렌타인 극장),서울특별시 강남구 신사동 566-31,37.5227864,127.02739240000001,movie/concerthall,10173
174,올림픽 예술극장 (K-아트홀 태권도공연장),서울특별시 송파구 방이동 88 올림픽공원 올림픽문화센터 내,37.520982700000005,127.11609140000002,movie/concerthall,10174
175,용산아트홀,서울특별시 용산구 이태원동 34-87,37.532505799999996,126.99011329999999,movie/concerthall,10175
176,웃찾사전용관,서울특별시 종로구 동숭동 1-113 지하1층,37.5815943,127.0028104,movie/concerthall,10176
177,워커힐 씨어터(구.가야금홀),서울특별시 광진구 워커힐로 177 (광장동),37.5586439,127.1117098,movie/concerthall,10177
178,유니버설아트센터,서울특별시 광진구 천호대로 664 (능동),37.5500833,127.0877013,movie/concerthall,10178
179,유니클로 악스(구 악스코리아),서울특별시 광진구 구천면로 20 (광장동),37.5457324,127.1080051,movie/concerthall,10179
180,유시어터,서울특별시 강남구 청담동 22-13 청담빌딩,37.522243100000004,127.04127790000001,movie/concerthall,10180
181,이리카페,서울특별시 마포구 와우산로 147,37.5543776,126.92939479999998,movie/concerthall,10181
182,이태원 KING CLUB the Lounge,서울특별시 용산구 이태원동 136-46 인당빌딩,37.5336895,126.99588659999999,movie/concerthall,10182
183,이태원 하드락 카페,서울특별시 용산구 이태원1동 119-25,37.5346971,126.9936129,movie/concerthall,10183
184,이해랑 예술극장,서울특별시 중구 필동 3가 26번지,37.559217700000005,126.9985031,movie/concerthall,10184
185,이화여고 100주년 기념관,서울특별시 중구 정동 32번지,37.564605799999995,126.9713913,movie/concerthall,10185
186,이화여대 대강당,서울특별시 서대문구 이화여대길 52,37.561777299999996,126.9466193,movie/concerthall,10186
187,이화여자대학교 삼성홀,서울특별시 서대문구 이화여대길 52 이화여자대학교 이화캠퍼스복합단지(ECC) 내 지하4층,37.561777299999996,126.9466193,movie/concerthall,10187
188,익스트림씨어터 1관,서울특별시 종로구 동숭동 1-33 21세기빌딩 5층,37.5827136,127.0021469,movie/concerthall,10188
189,일지아트홀(구 우림 청담 씨어터),서울특별시 강남구 청담2동 86-1번지 I 지하2층,37.5230089,127.04024960000001,movie/concerthall,10189
190,임페리얼 팰리스호텔 두베홀,서울특별시 강남구 논현동 248-7,37.5141005,127.0359818,movie/concerthall,10190
191,"잠실 롯데월드 호텔  
지하 1층 메가씨씨",서울특별시 송파구 잠실동 40-1,37.5112793,127.09804270000001,movie/concerthall,10191
192,잠실 롯데호텔 크리스탈볼룸,서울특별시 송파구 잠실동 40-1,37.5112793,127.09804270000001,movie/concerthall,10192
193,잠실실내체육관,서울특별시 송파구 잠실1동 10번지,37.5164915,127.0735976,movie/concerthall,10193
194,잠실야구장,서울특별시 송파구 잠실1동 10,37.5164915,127.0735976,movie/concerthall,10194
195,장충체육관,서울특별시 중구 장충동2가 200-102,37.5581292,127.00690290000001,movie/concerthall,10195
196,재머스,서울특별시 마포구 와우산로 120 정일빌딩 B1,37.5531172,126.9267768,movie/concerthall,10196
197,전쟁기념관 평화의광장,서울특별시 용산구 용산동 1가 8번지 용산전쟁기념관내,37.5362717,126.97704159999999,movie/concerthall,10197
198,점프 서울전용극장,서울특별시 종로구 돈화문로 13 서울극장 5층,37.5696849,126.99167479999998,movie/concerthall,10198
199,점프 전용관,서울특별시 종로구 관철동 33-1,37.5688354,126.988123,movie/concerthall,10199
200,정동극장,서울특별시 중구 퇴계로 212,37.561090500000006,126.99536359999999,movie/concerthall,10200
201,중앙대학교 아트센터 대극장,서울특별시 동작구 흑석로84 중앙대학교 내,37.5048875,126.95737790000001,movie/concerthall,10201
202,진선여고 대강당,서울특별시 강남구 역삼2동 713,37.5017085,127.04757859999998,movie/concerthall,10202
203,청담동 하드록 카페,서울특별시 강남구 청담동 91-2,37.5238678,127.0416368,movie/concerthall,10203
204,충무아트홀,서울특별시 중구 정동길 43,37.5659416,126.97285149999999,movie/concerthall,10204
205,코엑스 아티움(SM타운),서울특별시 강남구 삼성1동 무역센터 코엑스(COEX),,,movie/concerthall,10205
206,클럽 가든,서울특별시 강남구 신사동 661-11,37.527536299999994,127.0391815,movie/concerthall,10206
207,클럽 빵,서울특별시 마포구 와우산로29길 12,37.5548396,126.92930020000001,movie/concerthall,10207
208,포스트극장,서울특별시 마포구 와우산로 148,37.5541336,126.9296676,movie/concerthall,10208
209,프라디아(FRADIA),서울특별시 서초구 잠원동 121-9,37.5190391,127.00804699999999,movie/concerthall,10209
210,프린지 스튜디오,서울특별시 마포구 월드컵북로 6길21,37.5583694,126.91976809999998,movie/concerthall,10210
211,플래툰 쿤스트할레,서울특별시 강남구 논현동 97-22,37.520555,127.0349185,movie/concerthall,10211
212,한국문화의 집 코우스,서울특별시 강남구 대치동 944-22,37.5068447,127.06049329999999,movie/concerthall,10212
213,한국불교역사문화기념관,서울특별시 종로구 견지동 45,37.573899,126.9823254,movie/concerthall,10213
214,한전아트센터,서울특별시 서초구 쑥고개길 34 (서초 2동 1355) 한전아트센터,,,movie/concerthall,10214
215,해치홀,서울특별시 중구 명동2가 31-1 M플라자 5층 서울 글로벌 문화관광센터 內,37.5625106,126.98516869999999,movie/concerthall,10215
216,행복한 극장,서울특별시 종로구 동숭동 1-133번지 동원빌딩 지하 1층,37.5803257,127.00350390000001,movie/concerthall,10216
217,허리우드극장,서울특별시 종로구 낙원동 284-6 낙원상가4층,37.5725838,126.9878031,movie/concerthall,10217
218,현대·기아자동차 아트홀,서울특별시 서초구 양재동 231 (헌릉로 12),37.464364,127.042859,movie/concerthall,10218
219,호암아트홀,서울특별시 중구 순화동 7 중앙일보사 건물 호암 아트홀,37.5615747,126.97106720000001,movie/concerthall,10219
220,홍대 DGBG,서울특별시 마포구 잔다리로 23,37.5507449,126.9202185,movie/concerthall,10220
221,홍대 비보이 전용극장,서울특별시 마포구 와우산로 121 삼진제약BD 지하1층,37.5535113,126.92675190000001,movie/concerthall,10221
222,홍대 사운드홀릭,서울특별시 마포구 홍익로6길 10,37.5550027,126.9226763,movie/concerthall,10222
223,홍대 캐치라이트 클럽,서울특별시 마포구 와우산로21길 31 캐치라이트빌딩 B1F,37.552218100000005,126.9221517,movie/concerthall,10223
224,홍대 클럽 M2,서울특별시 마포구 잔다리로 20-5 오후빌딩 지하 1F,37.5511595,126.92063449999999,movie/concerthall,10224
225,홍대 클럽 타,서울특별시 마포구 와우산로17길 10 지하,37.5502941,126.9224926,movie/concerthall,10225
226,홍대 클럽 프리버드,서울특별시 마포구 와우산로21길 31-10,37.5520872,126.92184080000001,movie/concerthall,10226
227,홍대앞 김대범 소극장,서울특별시 마포구 와우산로 117 이지플러스 오피스텔 지하1층,37.5534989,126.92643319999999,movie/concerthall,10227
228,2001아울렛중계점,서울특별시 노원구 동일로204가길 46,37.6412768,127.0678895,shopping/mart,10228
229,2441아울렛천호점,서울특별시 강동구 구천면로 189,37.541349,127.125782,shopping/mart,10229
230,ABC마트,서울특별시 중구 명동8길  12,37.5631868,126.98445509999999,shopping/mart,10230
231,G 마트,서울특별시 강동구 구천면로 365-8,37.5509804,127.13956540000001,shopping/mart,10231
232,GS 슈퍼마켓,서울특별시 강동구 구천면로  317,37.548108899999995,127.1349305,shopping/mart,10232
233,GS슈퍼마트,서울특별시 강서구 초원로  37,37.567964700000005,126.81003840000001,shopping/mart,10233
234,GS슈퍼상계점,서울특별시 노원구 한글비석로 471,37.664194200000004,127.0658291,shopping/mart,10234
235,HK마트,서울특별시 동대문구 사가정로 104,37.5767364,127.05714099999999,shopping/mart,10235
236,LG베스트,서울특별시 성북구 종암로 102,37.599282099999996,127.0347221,shopping/mart,10236
237,LG베스트샵,서울특별시 은평구 은평로 153,37.601245,126.9245912,shopping/mart,10237
238,LG베스트샵,서울특별시 은평구 통일로 799,37.6153843,126.9247987,shopping/mart,10238
239,LG베스트샵,서울특별시 서대문구 응암로 58,37.5782972,126.91043329999998,shopping/mart,10239
240,LG베스트샵,서울특별시 강동구 양재대로 1564,37.5451208,127.14307620000001,shopping/mart,10240
241,LG전자,서울특별시 강동구 올림픽로 542,37.5299298,127.1207449,shopping/mart,10241
242,LG전자 길동사거리점,서울특별시 강동구 천호대로 113,,,shopping/mart,10242
243,LG프라자,서울특별시 송파구 중대로 142,37.4948946,127.1237467,shopping/mart,10243
244,LG하이프라자,서울특별시 성동구 뚝섬로  403,37.5388294,127.0556655,shopping/mart,10244
245,NC백화점,서울특별시 강서구 강서로56길 17,37.55993370000001,126.8405133,shopping/mart,10245
246,SM마트창동점,서울특별시 도봉구 덕릉로63가길 60,37.6430031,127.0374676,shopping/mart,10246
247,W-MALL,서울특별시 금천구 디지털로 188,37.4773527,126.88771840000001,shopping/mart,10247
248,가든파이브 NC백화점(LIFE관),서울특별시 송파구 충민로 66,37.4776846,127.1249925,shopping/mart,10248
249,강서농수산물도매시장,서울특별시 강서구 발산로  40,37.553503899999995,126.820806,shopping/mart,10249
250,강서농협하나로마트,서울특별시 강서구 금낭화로 287-10,37.576777299999996,126.8118723,shopping/mart,10250
251,갤러리아백화점WEST,서울특별시 강남구 압구정로 343,37.5284803,127.0400742,shopping/mart,10251
252,관악농협(금천점),서울특별시 금천구 탑골로  2,37.450796200000006,126.9102489,shopping/mart,10252
253,관악프라자,서울특별시 관악구 관악로  212,37.483625,126.9552125,shopping/mart,10253
254,광희시장,서울특별시 중구 동호로20길  24,37.558949299999995,127.0092626,shopping/mart,10254
255,국민마트,서울특별시 강북구 삼양로 450,37.6434849,127.01645819999999,shopping/mart,10255
256,그랜드마트,서울특별시 강서구 강서로  388,37.560185100000005,126.839298,shopping/mart,10256
257,꿈꾸는청년가게,서울특별시 중구 명동8가길 31,37.561918,126.9867969,shopping/mart,10257
258,농협관악농산물백화점,서울특별시 관악구 남부순환로 1369,37.4800727,126.9028666,shopping/mart,10258
259,농협하나로마트,서울특별시 중랑구 신내로  74,37.6059513,127.09566909999998,shopping/mart,10259
260,더브러마트,서울특별시 도봉구 방학로15길 19,37.66066370000001,127.02437749999999,shopping/mart,10260
261,도림시장,서울특별시 영등포구 도영로 50,37.5099223,126.8984578,shopping/mart,10261
262,독산동 하이마트,서울특별시 금천구 시흥대로  385,37.467890600000004,126.897208,shopping/mart,10262
263,두리마트,서울특별시 중랑구 중랑역로 225,37.613557,127.07526100000001,shopping/mart,10263
264,디지털프라자,서울특별시 강북구 한천로 960,37.6357032,127.0338335,shopping/mart,10264
265,럭키마트,서울특별시 강북구 삼양로79길 24-17,37.6311251,127.01617150000001,shopping/mart,10265
266,럭키할인마트,서울특별시 도봉구 해등로16길   63,37.6557362,127.04354840000002,shopping/mart,10266
267,로데오,서울특별시 영등포구 당산로   34,37.517464600000004,126.8964926,shopping/mart,10267
268,롯데마이수퍼,서울특별시 관악구 남부순환로 2074,37.476157,126.97907409999999,shopping/mart,10268
269,롯데마이슈퍼,서울특별시 성북구 길음로13길 24,37.6087292,127.0191555,shopping/mart,10269
270,롯데마트,서울특별시 구로구 경인로 482,37.498315999999996,126.87275349999999,shopping/mart,10270
271,롯데마트,서울특별시 노원구 노원로 330,37.6468248,127.0709487,shopping/mart,10271
272,롯데마트,서울특별시 강북구 삼양로 247,37.6255264,127.01777050000001,shopping/mart,10272
273,롯데마트 송파점,서울특별시 송파구 중대로 80,37.4917789,127.11788100000001,shopping/mart,10273
274,롯데마트999,서울특별시 도봉구 도봉로110길  65,37.646412299999994,127.03716399999999,shopping/mart,10274
275,롯데백화점 강남점,서울특별시 강남구 도곡로 401,37.497040999999996,127.05321529999999,shopping/mart,10275
276,롯데백화점 관악점,서울특별시 관악구 봉천로  209,37.4904955,126.92497990000001,shopping/mart,10276
277,롯데백화점 미아점,서울특별시 강북구 도봉로 62,37.614594700000005,127.0305364,shopping/mart,10277
278,롯데슈퍼,서울특별시 서초구 사임당로 143,37.491830799999995,127.0252409,shopping/mart,10278
279,롯데슈퍼,서울특별시 은평구 진관2로  117,37.6345119,126.9305185,shopping/mart,10279
280,롯데시네마 신림,서울특별시 관악구 신림로  330,37.4838632,126.930252,shopping/mart,10280
281,롯데호텔및백화점,서울특별시 중구 마장로1길 21,37.5686997,127.01192649999999,shopping/mart,10281
282,르네상스복합쇼핑몰,서울특별시 관악구 신림로  340,37.484779100000004,126.9300949,shopping/mart,10282
283,마리오아울렛3,서울특별시 금천구 벚꽃로  266,37.47842,126.88502920000002,shopping/mart,10283
284,마축일축산물시장,서울특별시 성동구 마장로35길  68,37.5706821,127.04129609999998,shopping/mart,10284
285,마포농수산물시장,서울특별시 마포구 월드컵로  235,37.5651843,126.8984946,shopping/mart,10285
286,메르체쇼핑몰,서울특별시 서대문구 이화여대길 59,37.559004200000004,126.9451739,shopping/mart,10286
287,명성마트,서울특별시 강동구 양재대로134길 27,37.547782899999994,127.14512279999998,shopping/mart,10287
288,모닝마트,서울특별시 금천구 독산로85길 40,37.472857700000006,126.90092079999998,shopping/mart,10288
289,북부농협<마트>,서울특별시 도봉구 해등로  166,37.6572811,127.0383987,shopping/mart,10289
290,빅마켓(롯데마트 영등포점),서울특별시 영등포구 영중로  125,37.5278142,126.90469420000001,shopping/mart,10290
291,빅마켓(롯데마트금천점),서울특별시 금천구 두산로 71,37.470636600000006,126.8956535,shopping/mart,10291
292,빅마켓(롯데마트도봉점),서울특별시 도봉구 마들로 645,37.667617,127.0455413,shopping/mart,10292
293,삼부마켓,서울특별시 은평구 증산로21길 11,37.595723,126.91351499999999,shopping/mart,10293
294,삼성 디지털 프라자,서울특별시 강남구 도곡로 193,37.4925967,127.0404375,shopping/mart,10294
295,삼성디지털,서울특별시 서초구 방배로  120,37.4849807,126.99576640000001,shopping/mart,10295
296,삼성디지털프라자,서울특별시 은평구 은평로  151,37.601212700000005,126.92440690000001,shopping/mart,10296
297,삼성디지털프라자,서울특별시 동대문구 망우로 107,37.5912936,127.0650251,shopping/mart,10297
298,삼성디지털프라자,서울특별시 구로구 경인로 368,37.4963908,126.86097609999999,shopping/mart,10298
299,삼성디지털프라자,서울특별시 동대문구 망우로 107,37.5912936,127.0650251,shopping/mart,10299
300,삼성전자디지털,서울특별시 서초구 효령로  410,37.4883648,127.0286153,shopping/mart,10300
301,성내동 하이마트,서울특별시 강동구 양재대로 1403,37.5314749,127.13718329999999,shopping/mart,10301
302,성내슈퍼마트,서울특별시 강동구 천호옛길  54-1,37.5338992,127.1238495,shopping/mart,10302
303,세계로마트,서울특별시 도봉구 도봉로125길   61,37.6553815,127.03656609999999,shopping/mart,10303
304,세계로마트(세움테크사옥),서울특별시 마포구 월드컵북로 328,37.575759999999995,126.8957476,shopping/mart,10304
305,수유시장,서울특별시 강북구 도봉로67길 18,37.63072879999999,127.02269380000001,shopping/mart,10305
306,슈퍼마켓,서울특별시 동작구 상도로 147,37.5031776,126.9358108,shopping/mart,10306
307,신도림테크노마트,서울특별시 구로구 새말로 97,37.50704879999999,126.89024599999999,shopping/mart,10307
308,신세계백화점 영등포점,서울특별시 영등포구 영중로 9,37.517186200000005,126.905592,shopping/mart,10308
309,썬프라자,서울특별시 영등포구 신길로 41,37.496393700000006,126.90808670000001,shopping/mart,10309
310,아웃렛마트,서울특별시 금천구 독산로40길  29,37.4606245,126.9062121,shopping/mart,10310
311,아웃백스테이크하우스 남영점,서울특별시 중구 한강대로  270,,,shopping/mart,10311
312,아이마트,서울특별시 노원구 광운로 79,37.624373600000006,127.0599382,shopping/mart,10312
313,아이파크몰,서울특별시 용산구 한강대로23길 55,37.529870200000005,126.96487590000001,shopping/mart,10313
314,압구정갤러리아백화점EAST,서울특별시 강남구 압구정로 407,37.5279152,127.0418419,shopping/mart,10314
315,엠코중앙마트,서울특별시 동작구 상도로62길 81-1,37.4974068,126.95142079999998,shopping/mart,10315
316,역삼종합시장,서울특별시 강남구 논현로63길 16,37.493009,127.0391373,shopping/mart,10316
317,올슈퍼,서울특별시 금천구 시흥대로39길  45,37.446546999999995,126.9006584,shopping/mart,10317
318,와우쇼핑몰,서울특별시 노원구 노해로 507,37.6554297,127.06388999999999,shopping/mart,10318
319,월드할인마트,서울특별시 은평구 진흥로1길 28,37.602970500000005,126.9189818,shopping/mart,10319
320,이마트 공항점,서울특별시 강서구 하늘길 76,37.5609162,126.7979123,shopping/mart,10320
321,이마트 마포공덕점,서울특별시 마포구 백범로 212,37.542398,126.95345379999999,shopping/mart,10321
322,이마트 묵동점,서울특별시 중랑구 동일로 932,37.6138355,127.0775187,shopping/mart,10322
323,이마트 상봉점,서울특별시 중랑구 상봉로 118,37.5964905,127.09361799999999,shopping/mart,10323
324,이마트 성수점,서울특별시 성동구 뚝섬로 379,37.539935299999996,127.05352179999998,shopping/mart,10324
325,이마트 월계점,서울특별시 노원구 마들로3길 15,37.62690070000001,127.061334,shopping/mart,10325
326,이마트 은평점,서울특별시 은평구 은평로 111,37.6008414,126.92053419999999,shopping/mart,10326
327,이마트 창동점,서울특별시 도봉구 노해로65길  4,37.6516448,127.04673259999998,shopping/mart,10327
328,이마트(구로점),서울특별시 구로구 디지털로32길 43,37.4844044,126.8979251,shopping/mart,10328
329,이마트에브리데이 암사동점,서울특별시 강동구 고덕로 99,37.554951,127.1362748,shopping/mart,10329
330,이마트에브리데이 창동점,서울특별시 도봉구 도봉로104길 53,37.643343,127.0350449,shopping/mart,10330
331,청다담마트,서울특별시 금천구 독산로  109,37.4570348,126.90529070000001,shopping/mart,10331
332,코스트코,서울특별시 중랑구 망우로 336,37.5969033,127.090322,shopping/mart,10332
333,킴스마트(현:이마트 에브리데이),서울특별시 강북구 오현로32길 18,37.628150700000006,127.04023219999999,shopping/mart,10333
334,토우마트2단지,서울특별시 성동구 마장로37길  53-14,37.570354200000004,127.0413866,shopping/mart,10334
335,푸른솔마트,서울특별시 강서구 양천로6길 15,37.5720052,126.80771840000001,shopping/mart,10335
336,하나로마트,서울특별시 동작구 서달로 150,37.506668100000006,126.9622064,shopping/mart,10336
337,하나로마트,서울특별시 서초구 청계산로  10,37.46349620000001,127.0435314,shopping/mart,10337
338,하모니마트,서울특별시 중랑구 면목로48길  39,37.582216700000004,127.09091550000001,shopping/mart,10338
339,하이마트,서울특별시 동대문구 고산자로 414,37.5764757,127.03864469999999,shopping/mart,10339
340,하이마트,서울특별시 동작구 여의대방로 208,37.505255600000005,126.92270420000001,shopping/mart,10340
341,하이마트,서울특별시 중구 다산로 210,37.5617027,127.01516540000001,shopping/mart,10341
342,하이마트,서울특별시 관악구 남부순환로  1810,37.4810885,126.9511476,shopping/mart,10342
343,하이마트,서울특별시 강북구 노해로 1,37.6356889,127.0228315,shopping/mart,10343
344,하이마트,서울특별시 동작구 상도로 237,37.5054602,126.9452757,shopping/mart,10344
345,하이마트,서울특별시 동작구 여의대방로 208,37.505255600000005,126.92270420000001,shopping/mart,10345
346,하이마트,서울특별시 중구 다산로 210,37.5617027,127.01516540000001,shopping/mart,10346
347,하이마트,서울특별시 관악구 남부순환로  1810,37.4810885,126.9511476,shopping/mart,10347
348,하이마트 구로점,서울특별시 구로구 가마산로 277,37.4966085,126.89080279999999,shopping/mart,10348
349,하이마트 독산점,서울특별시 금천구 시흥대로 322,37.4623485,126.8981065,shopping/mart,10349
350,하이마트 발산점,서울특별시 강서구 공항대로 283,37.5587527,126.8392643,shopping/mart,10350
351,하이마트 상암동,서울특별시 마포구 월드컵북로  295,37.573569,126.8979318,shopping/mart,10351
352,하이마트공릉점,서울특별시 노원구 동일로 1091,37.6272965,127.07177549999999,shopping/mart,10352
353,하이마트빌딩,서울특별시 동작구 동작대로 77,37.4834528,126.98159109999999,shopping/mart,10353
354,하이마트상계점,서울특별시 노원구 동일로 1641,37.6749285,127.0549116,shopping/mart,10354
355,하이마트서초점,서울특별시 서초구 서초대로  289,37.4939628,127.0131382,shopping/mart,10355
356,현대백화점,서울특별시 서대문구 신촌로 83,37.5560866,126.9358496,shopping/mart,10356
357,현대백화점,서울특별시 강남구 테헤란로 517,37.5086542,127.05975009999999,shopping/mart,10357
358,현대백화점,서울특별시 강남구 테헤란로 517,37.5086542,127.05975009999999,shopping/mart,10358
359,현대백화점 압구정점,서울특별시 강남구 압구정로 165,37.5273658,127.0274617,shopping/mart,10359
360,현대백화점U-PLEX,서울특별시 서대문구 연세로 13,37.5567412,126.9365645,shopping/mart,10360
361,홈플러스 가양점,서울특별시 강서구 양천로  431,37.5642865,126.84995420000001,shopping/mart,10361
362,홈플러스 강서점,서울특별시 강서구 화곡로  398,37.558476399999996,126.85481100000001,shopping/mart,10362
363,홈플러스 금천점,서울특별시 금천구 시흥대로 391,37.4686645,126.8968827,shopping/mart,10363
364,홈플러스 동대문점,서울특별시 동대문구 천호대로 133,37.57456129999999,127.038873,shopping/mart,10364
365,홈플러스 목동점,서울특별시 양천구 목동서로 170,37.5302268,126.8733084,shopping/mart,10365
366,홈플러스 문래점,서울특별시 영등포구 당산로  42,37.5182193,126.8958098,shopping/mart,10366
367,홈플러스 방학점,서울특별시 도봉구 도봉로 678,37.664891499999996,127.043577,shopping/mart,10367
368,홈플러스 시흥점,서울특별시 금천구 시흥대로 201,37.4518936,126.9007885,shopping/mart,10368
369,홈플러스 신내점,서울특별시 중랑구 신내로  201,37.61582979999999,127.09373259999998,shopping/mart,10369
370,홈플러스 월곡점,서울특별시 성북구 화랑로 76,37.601803100000005,127.04046740000001,shopping/mart,10370
371,홈플러스 월드컵점,서울특별시 마포구 월드컵로 240,37.569950899999995,126.899029,shopping/mart,10371
372,홈플러스 중계점,서울특별시 노원구 동일로204가길 12,37.6399096,127.0686298,shopping/mart,10372
373,강서구2-1공영주차장,서울특별시 강서구 강서로18아길 26-15,37.5360601,126.85243909999998,publicparking,10373
374,공덕1-1공영주차장,서울특별시 마포구 효창목길 31,37.547310100000004,126.96095659999999,publicparking,10374
375,공용주차장,서울특별시 송파구 오금로68길 8,37.4922814,127.15035619999999,publicparking,10375
376,까치산공영주차장,서울특별시 관악구 행운4길 21,37.4797826,126.9604835,publicparking,10376
377,남가좌2동 제1공영주차장,서울특별시 서대문구 가재울로14길 22,37.577020399999995,126.92178159999999,publicparking,10377
378,대림2동 공영주차장,서울특별시 영등포구 디지털로37나길 21,37.4916125,126.89994899999999,publicparking,10378
379,대림어린이공원 지하주차장,서울특별시 영등포구 대림로  106,37.4913501,126.9030298,publicparking,10379
380,도깨비시장공영주차장,서울특별시 도봉구 방학로10길 51,37.6645281,127.03400819999999,publicparking,10380
381,도선공영주차장,서울특별시 성동구 무학로8길  8,37.5655058,127.0315039,publicparking,10381
382,독산1동 공영주차장,서울특별시 금천구 범안로12가길 65,37.464964200000004,126.8947683,publicparking,10382
383,독산3동 공영주차장,서울특별시 금천구 독산로108길 44,37.4795047,126.906353,publicparking,10383
384,동산공영주차장,서울특별시 중구 다산로24가길 23,37.556309000000006,127.01600390000002,publicparking,10384
385,등촌동공영주차장,서울특별시 강서구 등촌로55길  33-16,37.5498061,126.8613244,publicparking,10385
386,마천동 공영주차장1,서울특별시 송파구 성내천로43길 6,37.4952891,127.15556129999999,publicparking,10386
387,망원1-1공영주차장,서울특별시 마포구 망원로 28,37.5561427,126.8999882,publicparking,10387
388,망원2-1공영주차장,서울특별시 마포구 망원로3길 24,37.5577488,126.90125640000001,publicparking,10388
389,면목2동공영주차장,서울특별시 중랑구 겸재로23길 27,37.5879445,127.08090890000001,publicparking,10389
390,면목3.8동공영주차장,서울특별시 중랑구 겸재로64길 9,37.5898293,127.09643529999998,publicparking,10390
391,면목5동공영주차장,서울특별시 중랑구 동일로 594,37.583191799999994,127.0801395,publicparking,10391
392,버티공영주차장,서울특별시 중구 동호로17길 270,37.5490732,127.00630890000002,publicparking,10392
393,볏골공원 지하공영주차장(볏골공원화장실에서 변경),서울특별시 강서구 까치산로4길  22,37.54179,126.844327,publicparking,10393
394,북아현동 제2공영주차장,서울특별시 서대문구 북아현로6길 60,37.56006179999999,126.95830690000001,publicparking,10394
395,삼성 공영주차장,서울특별시 금천구 독산로24마길 30,37.45458789999999,126.90903759999999,publicparking,10395
396,상암1공영주차장,서울특별시 마포구 성암로 197,37.5773151,126.8971706,publicparking,10396
397,서계공영주차장,서울특별시 용산구 효창원로104가길 16,37.5516492,126.9643893,publicparking,10397
398,서인사마당 공영주차장,서울특별시 종로구 인사동11길  19,37.573689200000004,126.98360339999999,publicparking,10398
399,서초3동공영주차장,서울특별시 서초구 반포대로28길  7,37.49054879999999,127.00895290000001,publicparking,10399
400,성산2-1공영주차장,서울특별시 마포구 모래내로 31,37.56483370000001,126.90669109999999,publicparking,10400
401,손기정체육공원 주차장,서울특별시 중구 손기정로  101,37.5569261,126.96636869999999,publicparking,10401
402,송파동 공영주차장,서울특별시 송파구 백제고분로44길 13-25,37.507028000000005,127.11336740000002,publicparking,10402
403,시흥3동 공영주차장,서울특별시 금천구 시흥대로34길 20,37.4430093,126.90582979999999,publicparking,10403
404,시흥4동 공영주차장,서울특별시 금천구 독산로36나길 21,37.4596985,126.90861869999999,publicparking,10404
405,신당2동공영주차장,서울특별시 중구 동호로15길 60,37.5543576,127.00858429999998,publicparking,10405
406,신당6동공영주차장,서울특별시 중구 다산로36가길 13,37.5613844,127.01902949999999,publicparking,10406
407,신당사거리공영주차장,서울특별시 중구 퇴계로 408,37.5651312,127.017016,publicparking,10407
408,신창동 공영주차장,서울특별시 용산구 원효로35길  53,37.5352858,126.95521799999999,publicparking,10408
409,암사1동공영주차장(암사4동 공영주차장),서울특별시 강동구 고덕로28길 36,37.5526841,127.1380091,publicparking,10409
410,암사동 민자 공영주차장,서울특별시 강동구 고덕로24길 54,,,publicparking,10410
411,연희동 제4공영주차장,서울특별시 서대문구 홍제천로 54-19,37.57084329999999,126.92271090000001,publicparking,10411
412,연희동 제5공영주차장,서울특별시 서대문구 홍제천로2길 83,37.5710271,126.9229301,publicparking,10412
413,연희동 제6공영주차장,서울특별시 서대문구 홍연길 16,37.5749547,126.928001,publicparking,10413
414,용산2가동 공영주차장,서울특별시 용산구 신흥로 90,37.546079299999995,126.98558340000001,publicparking,10414
415,원신공영주차장,서울특별시 관악구 양지길 63,37.4701269,126.92928559999999,publicparking,10415
416,은행나무공영주차장,서울특별시 중랑구 겸재로54가길 4,37.587042700000005,127.0915223,publicparking,10416
417,장충공영주차장,서울특별시 중구 퇴계로50길 59,37.5599718,127.00133090000001,publicparking,10417
418,조원동공영주차장,서울특별시 관악구 조원중앙로2길 19,37.4810827,126.9057145,publicparking,10418
419,창2동4공영주차장,서울특별시 도봉구 덕릉로59차길 37,37.6402939,127.0353759,publicparking,10419
420,천호1동 노외 공영주차장,서울특별시 강동구 구천면로42길 64,37.544720299999994,127.1369098,publicparking,10420
421,천호3동 노외 공영주차장,서울특별시 강동구 진황도로2길 34,37.540096500000004,127.12811040000001,publicparking,10421
422,충현동 제1공영주차장,서울특별시 서대문구 경기대로 72,37.565104,126.96453659999999,publicparking,10422
423,충현동 제2공영주차장,서울특별시 서대문구 북아현로14길 24,37.5628854,126.9567933,publicparking,10423
424,충현어린이공영주차장,서울특별시 중구 동호로11차길 1,37.552119899999994,127.0052382,publicparking,10424
425,필동공영주차장,서울특별시 중구 필동로 55,37.5565979,126.99588440000001,publicparking,10425
426,홍은1동 제4공영주차장,서울특별시 서대문구 홍은중앙로 125,37.6015614,126.94914820000001,publicparking,10426
427,홍은2동 제1공영주차장,서울특별시 서대문구 증가로10길 60-23,37.5789391,126.92564840000001,publicparking,10427
428,홍은2동 제2공영주차장,서울특별시 서대문구 연희로39나길 25,37.5875726,126.9319203,publicparking,10428
429,홍은2동 제3공영주차장,서울특별시 서대문구 연희로39길 12,37.5866921,126.93417579999999,publicparking,10429
430,홍제1동 제2공영주차장,서울특별시 서대문구 모래내로28안길 39,37.584115000000004,126.9462017,publicparking,10430
431,화곡1-1공영주차장,서울특별시 강서구 곰달래로15길  28,37.531446100000004,126.8398895,publicparking,10431
432,화곡7-1공영주차장,서울특별시 강서구 월정로32길 68,37.5360375,126.8391765,publicparking,10432
433,화곡8-2주택가공영주차장,서울특별시 강서구 초록마을로  126,37.537681,126.85036670000001,publicparking,10433
434,화곡본-1지구공영주차장,서울특별시 강서구 초록마을로26길  48,37.539759600000004,126.849791,publicparking,10434
435,화곡본-2주택가(공영주차장),서울특별시 강서구 초록마을로5길 43,37.5443078,126.84845729999999,publicparking,10435
436,갈곡리어린이공원 화장실,서울특별시 은평구 갈현로41길  3,37.6239024,126.9166598,publictoilet,10436
437,개롱공원 공중화장실,서울특별시 송파구 동남로 178,37.4934599,127.13005890000001,publictoilet,10437
438,곰돌이공원화장실(단지내),서울특별시 강서구 허준로 176,37.5622715,126.8570219,publictoilet,10438
439,공중화장실,서울특별시 금천구 시흥대로144길 17,37.4737845,126.9004226,publictoilet,10439
440,공중화장실,서울특별시 도봉구 시루봉로6길 33,37.6596497,127.02960690000002,publictoilet,10440
441,공중화장실,서울특별시 금천구 호암로 192,37.4462417,126.9220933,publictoilet,10441
442,공중화장실,서울특별시 도봉구 시루봉로6길 33,37.6596497,127.02960690000002,publictoilet,10442
443,공중화장실 14호,서울특별시 구로구 부일로9길 90-2,37.496342600000006,126.8244435,publictoilet,10443
444,공중화장실 23호,서울특별시 구로구 고척로45길 1,37.5040744,126.8527845,publictoilet,10444
445,공중화장실(대방역),서울특별시 영등포구 노량진로  7,37.512858,126.9260565,publictoilet,10445
446,공중화장실(여의도공원),서울특별시 영등포구 여의공원로  120,37.5295815,126.9266321,publictoilet,10446
447,공중화장실24호,서울특별시 구로구 개봉로15길 58-2,37.4899799,126.85289070000002,publictoilet,10447
448,공중화장실5호,서울특별시 구로구 구로동로8길 27,37.4870571,126.88624109999998,publictoilet,10448
449,공중화장실6호,서울특별시 구로구 구로동로17길 66,37.4883092,126.8809088,publictoilet,10449
450,공항동 화장실(성당옆공원),서울특별시 강서구 송정로 9,37.5562315,126.8120999,publictoilet,10450
451,광장시장 공중화장실,서울특별시 종로구 종로32길 19,37.5701745,127.0012544,publictoilet,10451
452,광희동1가시범공중화장실,서울특별시 중구 마른내로  166,37.5643713,127.0063064,publictoilet,10452
453,까치산공원화장실-(새길상세주소누락),서울특별시 강서구 까치산로2길 1,37.540975,126.8424756,publictoilet,10453
454,꽃동네공원화장실(단지내),서울특별시 강서구 허준로 47,37.5704364,126.84724469999999,publictoilet,10454
455,꿈돌이공원(화장실),서울특별시 강서구 화곡로42가길 1,,,publictoilet,10455
456,나들이공원화장실(단지내),서울특별시 강서구 허준로 23,37.571579,126.84528130000001,publictoilet,10456
457,대방동공중화장실,서울특별시 동작구 여의대방로24길 29,37.4979941,126.92201850000001,publictoilet,10457
458,도화소공원공중화장실,서울특별시 마포구 토정로37길 22,37.541049,126.9453594,publictoilet,10458
459,동명근린공원 공중화장실,서울특별시 강동구 아리수로78길 43-1,37.560550899999996,127.16381990000001,publictoilet,10459
460,동묘공원 공중화장실,서울특별시 종로구 난계로27길 84,37.572815999999996,127.0184433,publictoilet,10460
461,면목5동공중화장실,서울특별시 중랑구 봉우재로 168-1,37.593681700000005,127.0917145,publictoilet,10461
462,목련공원화장실,서울특별시 송파구 동남로24길 25,37.4990849,127.13886770000002,publictoilet,10462
463,무궁화공원화장실,서울특별시 강서구 까치산로 18,37.541621899999996,126.8427358,publictoilet,10463
464,무지개공원화장실(단지내),서울특별시 강서구 양천로57길 37,37.565272799999995,126.85199159999999,publictoilet,10464
465,방이공원화장실,서울특별시 송파구 백제고분로 48,,,publictoilet,10465
466,방화근린공원화장실(관리사무실),서울특별시 강서구 금낭화로  176,37.5809902,126.8141648,publictoilet,10466
467,방화제2화장실,서울특별시 강서구 개화동로29길  28-1,37.563671500000005,126.80840729999998,publictoilet,10467
468,백토공원화장실,서울특별시 송파구 양재대로72길 47-8,37.5081146,127.13213470000001,publictoilet,10468
469,봉원공용화장실,서울특별시 서대문구 봉원사길 101-18,37.5707186,126.9461973,publictoilet,10469
470,비둘기공원화장실(단지내),서울특별시 강서구 허준로 224,37.5598505,126.8624406,publictoilet,10470
471,사자암공중화장실,서울특별시 동작구 국사봉1길 235-14,37.492748799999994,126.9371652,publictoilet,10471
472,사직공원 공중화장실,서울특별시 종로구 사직로 89,37.5756566,126.96766640000001,publictoilet,10472
473,삼청공원 공중화장실,서울특별시 종로구 북촌로 134-3,37.5879947,126.98410159999999,publictoilet,10473
474,상도1동공중화장실,서울특별시 동작구 상도로41가길 19,37.5038821,126.95021840000001,publictoilet,10474
475,새락골어린이공원화장실,서울특별시 은평구 은평로3가길 34,37.5989713,126.9113348,publictoilet,10475
476,새록어린이공원화장실,서울특별시 은평구 은평로13길  35,37.603952500000005,126.92389209999999,publictoilet,10476
477,서낭당근린공원화장실(관리사무실),서울특별시 강서구 공항대로43길 46,37.5588806,126.8499866,publictoilet,10477
478,송파나루공원 화장실,서울특별시 송파구 석촌호수로 17,,,publictoilet,10478
479,시범공중화장실,서울특별시 은평구 불광로18길  43,37.623019299999996,126.9358996,publictoilet,10479
480,시흥4동시범공중화장실,서울특별시 금천구 독산로54길 6,37.4629848,126.9071213,publictoilet,10480
481,신원시장 공중화장실,서울특별시 관악구 신원로3길  20-3,37.4820859,126.92739089999999,publictoilet,10481
482,신트리공원 화장실,서울특별시 양천구 신정로 310-7,,,publictoilet,10482
483,신흥어린이공원 공중화장실,서울특별시 은평구 증산로21길  25,37.5959645,126.9119679,publictoilet,10483
484,아름공원화장실(동양고옆공원),서울특별시 강서구 허준로 50,37.5687999,126.8470975,publictoilet,10484
485,양천공원 화장실,서울특별시 양천구 신정로 320,,,publictoilet,10485
486,어린이대공원후문공중화장실,서울특별시 광진구 능동로 216,37.5498987,127.0809212,publictoilet,10486
487,역말공원화장실,서울특별시 은평구 갈현로14길 32,37.606927,126.9142745,publictoilet,10487
488,연서공원화장실,서울특별시 은평구 연서로6길 8-1,37.604146,126.9166759,publictoilet,10488
489,연화공원화장실,서울특별시 송파구 새말로15길 17-5,37.4855016,127.12903030000001,publictoilet,10489
490,오금공원인라인장화장실,서울특별시 송파구 오금로 363,37.5052003,127.13167390000001,publictoilet,10490
491,오금공원화장실,서울특별시 송파구 오금로 363,37.5052003,127.13167390000001,publictoilet,10491
492,을지로7가시범공중화장실,서울특별시 중구 장충단로 228-15,37.5656185,127.00825459999999,publictoilet,10492
493,응암어린이공원 화장실,서울특별시 은평구 은평로11길 10,37.6017347,126.92355330000001,publictoilet,10493
494,장미공원화장실,서울특별시 강서구 방화대로7다길 35-18,37.5568468,126.81375200000001,publictoilet,10494
495,장위3동공중화장실,서울특별시 성북구 한천로97길 8-14,37.6206325,127.05249750000002,publictoilet,10495
496,좌월어린이공원 화장실,서울특별시 은평구 갈현로25길 11-8,37.617165500000006,126.91314560000001,publictoilet,10496
497,초안산공중화장실,서울특별시 도봉구 해등로3길  48-11,37.6474615,127.04149040000001,publictoilet,10497
498,21세기병원,서울특별시 서초구 서초중앙로  39,37.48526470000001,127.0156815,hospital,10498
499,A+ 치과병원,서울특별시 강남구 언주로 860,37.527247100000004,127.0339057,hospital,10499
500,BMC한방병원,서울특별시 강서구 화곡로 238,37.5462952,126.84549960000001,hospital,10500
501,GS항외과의원,서울특별시 관악구 남부순환로 1669,37.484984499999996,126.93631599999999,hospital,10501
502,HL의원(선기빌딩),서울특별시 강남구 논현로 648,37.5115965,127.0323017,hospital,10502
503,KS병원,서울특별시 강남구 선릉로 571,37.5093123,127.0439585,hospital,10503
504,MD병원,서울특별시 강남구 선릉로 832,37.5262501,127.0404523,hospital,10504
505,MVP성형외과,서울특별시 강남구 논현로 819,37.521642799999995,127.02789879999999,hospital,10505
506,SMC서울메디칼센터(의원),서울특별시 마포구 월드컵북로  165,37.56687720000001,126.90985590000001,hospital,10506
507,W병원,서울특별시 관악구 남부순환로  1640,37.484233700000004,126.9329375,hospital,10507
508,가화정신병원,서울특별시 도봉구 도당로  51,37.6628181,127.0344193,hospital,10508
509,강남경희한방병원,서울특별시 강남구 영동대로 225,37.4992831,127.06761840000001,hospital,10509
510,강남성심병원,서울특별시 영등포구 신길로 1,37.492878600000004,126.9087598,hospital,10510
511,강남성심병원별관,서울특별시 영등포구 신길로 19-2,37.4943419,126.9082723,hospital,10511
512,강남세브란스,서울특별시 강남구 언주로 211,37.492779799999994,127.04630929999999,hospital,10512
513,강남센트럴요양병원,서울특별시 강남구 광평로51길 6-9,37.4884511,127.1029949,hospital,10513
514,강남요양병원,서울특별시 서초구 서초중앙로 197,37.499390500000004,127.0120913,hospital,10514
515,강남을지병원,서울특별시 강남구 도산대로 202,37.5193962,127.0286482,hospital,10515
516,강남자이 비뇨기과 병원,서울특별시 강남구 논현로 609,37.5080115,127.03313999999999,hospital,10516
517,강남중앙병원,서울특별시 관악구 남부순환로  1449,37.481594799999996,126.91170670000001,hospital,10517
518,강남초이스병원,서울특별시 관악구 남부순환로  1796,37.481312100000004,126.9496007,hospital,10518
519,강남효병원(고암빌딩),서울특별시 관악구 남부순환로  1704,37.483058500000006,126.9394003,hospital,10519
520,강동미즈문화센터소아청소년과,서울특별시 강동구 천호대로159길 14,37.5381348,127.12795390000001,hospital,10520
521,강동미즈여성병원,서울특별시 강동구 천호대로 1043,37.5376224,127.1281183,hospital,10521
522,강동성모병원,서울특별시 강동구 천호대로 1151,37.5341742,127.1393437,hospital,10522
523,강동성모요양병원(별관),서울특별시 강동구 진황도로 124,37.5343935,127.139595,hospital,10523
524,강동성모요양병원(신관),서울특별시 강동구 진황도로  122,37.5345705,127.1394696,hospital,10524
525,강동성심병원,서울특별시 강동구 성안로  150,37.5361506,127.1353445,hospital,10525
526,강동센트럴요양병원,서울특별시 강동구 올림픽로98길 8,37.551139299999996,127.12845779999999,hospital,10526
527,강동연세내과,서울특별시 강동구 올림픽로  782,37.55086420000001,127.1281396,hospital,10527
528,강동연세병원,서울특별시 강동구 올림픽로 742,37.547326,127.12690829999998,hospital,10528
529,강동한방병원,서울특별시 강동구 양재대로  1554,37.544164,127.142799,hospital,10529
530,강북21세기병원,서울특별시 중랑구 동일로 890,37.6099209,127.07820120000001,hospital,10530
531,강북삼성병원 본관,서울특별시 종로구 새문안로  29,37.5684083,126.96775,hospital,10531
532,강북삼성병원 장례식장,서울특별시 종로구 새문안로 29,37.5684083,126.96775,hospital,10532
533,강북성모병원,서울특별시 서대문구 성산로  335,37.566134000000005,126.9276737,hospital,10533
534,강북예치과병원,서울특별시 노원구 노해로 480,37.6541936,127.061435,hospital,10534
535,강북으뜸내과,서울특별시 동대문구 전농로 110,37.574713200000005,127.058006,hospital,10535
536,강북힘찬병원,서울특별시 도봉구 도봉로  446,37.645667200000005,127.03339869999999,hospital,10536
537,강서성모요양병원,서울특별시 강서구 화곡로  416,37.5598994,126.8553865,hospital,10537
538,강서성심병원(강서사랑요양병원),서울특별시 강서구 양천로  35,37.572979499999995,126.80769380000001,hospital,10538
539,강서솔병원,서울특별시 강서구 금낭화로  9,37.5661315,126.8116212,hospital,10539
540,강서연세병원,서울특별시 강서구 양천로  712,37.549314700000004,126.87481969999999,hospital,10540
541,강서한방병원,서울특별시 강서구 곰달래로  54,37.5299591,126.8388321,hospital,10541
542,강윤빌딩(윤앤송한의원),서울특별시 성북구 동소문로  92,37.5921768,127.01548600000001,hospital,10542
543,건강한세상앞선치과병원,서울특별시 강남구 테헤란로87길 46,37.5109817,127.0580898,hospital,10543
544,건국대학교병원,서울특별시 광진구 능동로 120-1,37.5403764,127.07182759999998,hospital,10544
545,경동요양병원,서울특별시 동대문구 약령시로 124,37.5829554,127.0437795,hospital,10545
546,경찰병원,서울특별시 송파구 송이로 123,37.4963836,127.12350900000001,hospital,10546
547,경희대학교 의과대학동서신의학병원,서울특별시 강동구 동남로 892,37.5534484,127.1573794,hospital,10547
548,경희의원,서울특별시 동작구 사당로 215,37.484485600000006,126.97237040000002,hospital,10548
549,경희인의한의원,서울특별시 은평구 통일로67길  3,37.610939,126.9288505,hospital,10549
550,고려대안암병원,서울특별시 성북구 안암로 148,,,hospital,10550
551,고려대학교장례식장,서울특별시 성북구 안암로 148,,,hospital,10551
552,고려새한병원,서울특별시 강북구 도봉로 67,37.6151266,127.02960049999999,hospital,10552
553,고려수요양병원,서울특별시 금천구 남부순환로 1400,37.480036600000005,126.90642350000002,hospital,10553
554,고운타워(유앤유치과),서울특별시 관악구 양녕로 58,37.48731420000001,126.9471,hospital,10554
555,공안과,서울특별시 강동구 풍성로37길 45,37.5339209,127.12603259999999,hospital,10555
556,관악구보건소,서울특별시 관악구 관악로  145,37.4781549,126.95148470000001,hospital,10556
557,광동한방병원,서울특별시 강남구 봉은사로 612,37.514287,127.06216380000001,hospital,10557
558,광진구 보건소(광진구청제2별관),서울특별시 광진구 자양로 117,37.538616999999995,127.082375,hospital,10558
559,광혜병원,서울특별시 강남구 영동대로86길 9,37.5081511,127.0647955,hospital,10559
560,광혜병원 종합건강검진센터,서울특별시 강남구 영동대로86길 9,37.5081511,127.0647955,hospital,10560
561,구로고대병원,서울특별시 구로구 구로동로 148,37.492052,126.88487009999999,hospital,10561
562,구로고대부속병원장례식장,서울특별시 구로구 가마산로 218,37.4932305,126.88516709999999,hospital,10562
563,구로성심병원,서울특별시 구로구 경인로 427,37.4996564,126.8663737,hospital,10563
564,국립의료원,서울특별시 중구 서애로1길 17,37.5614,126.999275,hospital,10564
565,국립재활원,서울특별시 강북구 삼각산로 58,37.6388781,127.0105162,hospital,10565
566,굿조인트병원,서울특별시 송파구 오금로 513,37.493239,127.1458933,hospital,10566
567,금호1가보건분소,서울특별시 성동구 금호로  114,,,hospital,10567
568,기쁨병원(지후빌딩),서울특별시 강남구 도곡로 122,37.4899239,127.0337463,hospital,10568
569,"길동노인요양병원(동화빌딩 4,5층)",서울특별시 강동구 천호대로  1165,37.5340809,127.14093799999999,hospital,10569
570,김&송 유나이티드 성형외과(하늘빌딩),서울특별시 강남구 남부순환로 2609,37.4849635,127.0351139,hospital,10570
571,김성진 정형외과,서울특별시 금천구 독산로  142,37.460097999999995,126.90511129999999,hospital,10571
572,김영수병원(구정빌딩),서울특별시 강남구 언주로174길 15,37.528514799999996,127.0352314,hospital,10572
573,김완호정형외과의원,서울특별시 강서구 화곡로 173,37.5420459,126.84075109999999,hospital,10573
574,김인권 성형외과(유덕빌딩),서울특별시 강남구 압구정로 443,37.5266565,127.04597659999999,hospital,10574
575,김홍일내과,서울특별시 금천구 시흥대로 202,37.4520002,126.9021196,hospital,10575
576,나누리병원,서울특별시 강서구 가로공원로  187,37.537369500000004,126.8367068,hospital,10576
577,나누리병원,서울특별시 강남구 언주로 731,37.5203157,127.03401459999999,hospital,10577
578,낙성대클리닉센터(고려정형외과의원),서울특별시 관악구 남부순환로 1952,37.475941,126.9656702,hospital,10578
579,난곡보건분소,서울특별시 관악구 난곡로 162,37.4694995,126.92035320000001,hospital,10579
580,날개병원,서울특별시 동대문구 무학로 193-1,37.581639200000005,127.0295165,hospital,10580
581,날아라정형외과,서울특별시 중랑구 용마산로 484,37.5941626,127.09968300000001,hospital,10581
582,네모치과의원(신도타워),서울특별시 강남구 테헤란로 333,37.504693100000004,127.04802340000002,hospital,10582
583,노블요양병원,서울특별시 은평구 응암로  304,37.5984823,126.92120829999999,hospital,10583
584,노원보건소,서울특별시 노원구 노해로 437,37.654358,127.056473,hospital,10584
585,노원솔요양병원,서울특별시 노원구 덕릉로 690,37.6591873,127.0756768,hospital,10585
586,노원스마트요양병원,서울특별시 노원구 노원로 461,37.65743629999999,127.06564329999999,hospital,10586
587,노정형외과,서울특별시 중랑구 망우로 476,37.600322799999994,127.10511699999999,hospital,10587
588,녹십초한방병원,서울특별시 동작구 시흥대로 634,37.48840070000001,126.90663020000001,hospital,10588
589,누네안과병원,서울특별시 강남구 선릉로 404,37.501015100000004,127.0509749,hospital,10589
590,뉴강서성심병원,서울특별시 강서구 양천로 45-5,37.573286700000004,126.80882450000001,hospital,10590
591,뉴스타트병원,서울특별시 송파구 송이로 76,37.499100899999995,127.1194393,hospital,10591
592,뉴연세 산후조리원,서울특별시 금천구 시흥대로71길 41,37.4551778,126.899746,hospital,10592
593,뉴타운장례식장,서울특별시 성북구 종암로 199,37.6076021,127.03041840000002,hospital,10593
594,다나병원,서울특별시 도봉구 해등로 129,37.6550662,127.0404595,hospital,10594
595,답비뇨기과,서울특별시 강동구 천호대로  1415,,,hospital,10595
596,대림성모병원,서울특별시 영등포구 시흥대로 657,37.490701,126.9071757,hospital,10596
597,대림성모병원 건강검진센터,서울특별시 영등포구 시흥대로183길 7-8,37.490469299999994,126.90666259999999,hospital,10597
598,대한병원,서울특별시 강북구 도봉로 301,37.635477,127.02270190000002,hospital,10598
599,대항병원,서울특별시 서초구 남부순환로 2151,37.4757993,126.9877259,hospital,10599
600,더 조은병원,서울특별시 강남구 논현로 705,37.5149034,127.03001370000001,hospital,10600
601,더본정형외과,서울특별시 동작구 동작대로 67,37.4825638,126.98147970000001,hospital,10601
602,더와이즈황병원,서울특별시 강서구 까치산로 23,37.5420744,126.8428935,hospital,10602
603,도봉병원 <건강검진센터>,서울특별시 도봉구 도봉로 726,37.66914179999999,127.04387120000001,hospital,10603
604,도봉병원<본관>,서울특별시 도봉구 도봉로 720,37.6687601,127.04382790000001,hospital,10604
605,도봉병원<신관>,서울특별시 도봉구 도봉로 718,37.668525,127.04381969999999,hospital,10605
606,도봉보건소,서울특별시 도봉구 방학로3길 117,37.657993499999996,127.0389254,hospital,10606
607,도양라비앙타워빌딩(서울수치과),서울특별시 강서구 강서로  43,37.5315201,126.84654170000002,hospital,10607
608,동부요양병원,서울특별시 성동구 자동차시장1길 85,37.5605336,127.06716509999998,hospital,10608
609,동부제일병원,서울특별시 중랑구 망우로 511,37.6007085,127.1090094,hospital,10609
610,동서울병원,서울특별시 동대문구 왕산로 18,37.576056099999995,127.0256247,hospital,10610
611,동서한방병원,서울특별시 서대문구 성산로 365-14,37.5646732,126.93027279999998,hospital,10611
612,동신병원(구관),서울특별시 서대문구 연희로 272,37.5813323,126.9364251,hospital,10612
613,동신병원신관(동욱빌딩),서울특별시 서대문구 연희로 276,37.5816902,126.936578,hospital,10613
614,동작경희병원,서울특별시 동작구 상도로 146,37.5024765,126.9358649,hospital,10614
615,동작보건소,서울특별시 동작구 장승배기로10길 42,37.504550200000004,126.94100800000001,hospital,10615
616,드림비뇨기과 피부과,서울특별시 은평구 가좌로 271,37.592850899999995,126.9134417,hospital,10616
617,드림성형외과,서울특별시 강남구 논현로  848,37.5246,127.02887959999998,hospital,10617
618,드림요양병원,서울특별시 송파구 송이로 111,37.4966844,127.12216049999999,hospital,10618
619,라마드레 산부인과,서울특별시 강남구 선릉로  535,37.5070119,127.04665359999998,hospital,10619
620,라온병원(승일뷰티타워),서울특별시 양천구 신월로 164,37.5177489,126.8420281,hospital,10620
621,라피 메딩앙스 정형외과,서울특별시 강남구 논현로 828,37.522444799999995,127.02855020000001,hospital,10621
622,로고스치과,서울특별시 강서구 공항대로 426,37.5548331,126.85429429999999,hospital,10622
623,로고스치과병원,서울특별시 강서구 공항대로  281,37.55887070000001,126.8389048,hospital,10623
624,로하스은평효병원,서울특별시 은평구 연서로  209,37.6173231,126.9188543,hospital,10624
625,루시나산부인과,서울특별시 성북구 보문로  180,37.590281,127.01540559999998,hospital,10625
626,리더스 피부과,서울특별시 강남구 도산대로  212,37.5198294,127.03011090000001,hospital,10626
627,린피부과,서울특별시 송파구 석촌호수로  118,37.5074552,127.09004270000001,hospital,10627
628,마디병원,서울특별시 강남구 삼성로 646,37.5177013,127.05119270000002,hospital,10628
629,마리아병원,서울특별시 송파구 송이로 156,37.493035299999995,127.12461470000001,hospital,10629
630,마리아병원,서울특별시 동대문구 천호대로 20,37.5742265,127.0253291,hospital,10630
631,마리아성모병원,서울특별시 영등포구 영중로  122,37.5271387,126.9059592,hospital,10631
632,맑은수병원,서울특별시 동대문구 천호대로83길 44,37.563889,127.0655703,hospital,10632
633,맑음숲한의원,서울특별시 동작구 동작대로 21,37.478491600000005,126.98135590000001,hospital,10633
634,메디아이여성병원,서울특별시 노원구 노원로 448,37.656488700000004,127.0670718,hospital,10634
635,메디켈센터,서울특별시 관악구 난곡로 214,37.4739076,126.9181669,hospital,10635
636,메디파크의원,서울특별시 노원구 덕릉로 768,37.6658216,127.07791680000001,hospital,10636
637,메디힐병원별관,서울특별시 양천구 남부순환로 330,37.5371988,126.8269689,hospital,10637
638,메디힐병원본관,서울특별시 양천구 남부순환로 331,37.537248600000005,126.8277922,hospital,10638
639,명지성모병원,서울특별시 영등포구 도림로  156,37.493863,126.8992713,hospital,10639
640,명지춘혜병원,서울특별시 영등포구 대림로 223,37.5006638,126.8970392,hospital,10640
641,모네여성병원,서울특별시 노원구 노원로 416,37.653725099999996,127.0678953,hospital,10641
642,모커리 병원(물리치료실),서울특별시 강남구 도곡로 218,37.4926761,127.04287420000001,hospital,10642
643,모커리한방병원,서울특별시 강남구 도곡로 216,37.492670200000006,127.0427039,hospital,10643
644,목동라테라산후조리원,서울특별시 강서구 등촌로  45,37.533976700000004,126.8633384,hospital,10644
645,목동연세병원,서울특별시 양천구 목동로 189,37.525304999999996,126.86417469999999,hospital,10645
646,문현치과의원,서울특별시 관악구 남부순환로 1474,37.481469399999995,126.9142094,hospital,10646
647,문화빌딩(서울수정형외과),서울특별시 강동구 구천면로  200,37.540295799999996,127.1268159,hospital,10647
648,미병원,서울특별시 강남구 논현로168길 35,37.523475700000006,127.0312247,hospital,10648
649,미소진치과,서울특별시 성북구 보문로  157,37.5884335,127.0169267,hospital,10649
650,미자인 의원,서울특별시 강남구 도산대로  423,37.5239566,127.0422186,hospital,10650
651,미즈메디병원,서울특별시 강서구 강서로47가길  19,37.551719,126.83573840000001,hospital,10651
652,미즈메디병원,서울특별시 강남구 도곡로 452,37.4980298,127.05994380000001,hospital,10652
653,밀레니엄차과 병원,서울특별시 종로구 종로 78,37.5698841,126.9860512,hospital,10653
654,바로선병원,서울특별시 도봉구 도봉로   628,37.660347200000004,127.0421345,hospital,10654
655,바른본병원,서울특별시 광진구 능동로 261,37.553519200000004,127.07716979999998,hospital,10655
656,바비페이스 병원,서울특별시 강남구 강남대로 516,37.5082725,127.0231581,hospital,10656
657,박형근정형외과,서울특별시 성동구 왕십리로  311,37.561521299999995,127.03458049999999,hospital,10657
658,반도정형외과병원,서울특별시 중구 을지로 245,37.5672138,127.00567099999999,hospital,10658
659,베드로병원(증축 및 대수선),서울특별시 강남구 남부순환로 2633,37.485358000000005,127.0377822,hospital,10659
660,베스티안 병원,서울특별시 강남구 도곡로 429,37.4980274,127.0573038,hospital,10660
661,베트로병원,서울특별시 서대문구 신촌로37길  10,37.557726,126.9570126,hospital,10661
662,보문효사랑병원,서울특별시 성북구 보문로 46,37.5797437,127.02273970000002,hospital,10662
663,본앤본정형외과,서울특별시 강서구 공항대로43길 123,37.562508799999996,126.851146,hospital,10663
664,부민병원,서울특별시 강서구 공항대로  389,37.5568464,126.85091440000001,hospital,10664
665,사랑의 병원,서울특별시 관악구 남부순환로 1860,37.4796222,126.9562942,hospital,10665
666,삼성미래여성병원,서울특별시 구로구 서해안로 2296,37.491228799999995,126.84040719999999,hospital,10666
667,삼성서울병원,서울특별시 강남구 일원로 81,37.4895794,127.08785230000001,hospital,10667
668,삼성제일병원신관,서울특별시 중구 남대문로 81,37.564752399999996,126.98173090000002,hospital,10668
669,삼육의료원건강검진센터,서울특별시 동대문구 망우로 8,,,hospital,10669
670,삼육의료원장례식장,서울특별시 동대문구 망우로 82,37.5879909,127.06530659999999,hospital,10670
671,상계백병원,서울특별시 노원구 동일로 1342,37.6485282,127.0631233,hospital,10671
672,상계빌딩(굳쎈정형외과),서울특별시 노원구 동일로 1673,37.6778453,127.05493510000001,hospital,10672
673,상계정형외과의원,서울특별시 노원구 노원로26길 181,37.6580879,127.07139270000002,hospital,10673
674,상쾌한아침외과의원,서울특별시 노원구 동일로 1401,37.653585299999996,127.0604094,hospital,10674
675,새길병원,서울특별시 도봉구 삼양로 600,37.6566385,127.0137355,hospital,10675
676,새보람요양병원,서울특별시 도봉구 방학로3길  13,37.662125200000006,127.04109340000001,hospital,10676
677,새빛요양병원(윤빌딩),서울특별시 강서구 화곡로61길 109,37.5583066,126.84644879999999,hospital,10677
678,새서울병원,서울특별시 동대문구 장한로 144,37.5731336,127.072152,hospital,10678
679,새서울병원,서울특별시 노원구 동일로 1678,37.6780941,127.05570970000001,hospital,10679
680,새움병원,서울특별시 금천구 시흥대로  449,37.473762799999996,126.89797539999999,hospital,10680
681,새한빛병원,서울특별시 강북구 한천로 1002,37.6381295,127.03003670000001,hospital,10681
682,새희망병원,서울특별시 송파구 오금로 488,37.4934709,127.1429277,hospital,10682
683,서대문구보건소 천연분소,서울특별시 서대문구 독립문로 27,37.5696175,126.96132450000002,hospital,10683
684,서울 메디칼센터,서울특별시 마포구 월드컵북로  165,37.56687720000001,126.90985590000001,hospital,10684
685,서울 참병원,서울특별시 영등포구 양평로22사길 9,37.540820200000006,126.89502040000002,hospital,10685
686,서울대학교병원,서울특별시 종로구 대학로  101,37.5795742,126.9989953,hospital,10686
687,서울대학교병원 암센터,서울특별시 종로구 대학로  101,37.5795742,126.9989953,hospital,10687
688,서울대효병원,서울특별시 강서구 강서로47가길 33,37.5511272,126.8357821,hospital,10688
689,서울미래정형외과,서울특별시 성북구 종암로21길 3,37.5988302,127.0341476,hospital,10689
690,서울밝은세상 안과(한양타운),서울특별시 강남구 선릉로 823,37.5256112,127.03941299999998,hospital,10690
691,서울백병원,서울특별시 중구 퇴계로46길 35,37.5611241,126.99968059999999,hospital,10691
692,서울베스트병원,서울특별시 강북구 도봉로 114,37.6192886,127.02928999999999,hospital,10692
693,서울병원,서울특별시 송파구 오금로36길 290,,,hospital,10693
694,서울병원,서울특별시 은평구 진흥로  191,37.60886179999999,126.9307608,hospital,10694
695,서울보훈병원,서울특별시 강동구 진황도로61길  53,37.530634,127.1481606,hospital,10695
696,서울복지병원,서울특별시 영등포구 도림로  142,37.493250399999994,126.897908,hospital,10696
697,서울선병원,서울특별시 중랑구 망우로 373,37.598636299999995,127.09364679999999,hospital,10697
698,서울성모병원,서울특별시 서초구 반포대로  222,37.500944399999995,127.00511540000001,hospital,10698
699,서울성심병원,서울특별시 동대문구 왕산로  259,37.5843076,127.04972959999999,hospital,10699
700,서울신내요양병원,서울특별시 중랑구 용마산로 622,37.606398799999994,127.1011707,hospital,10700
701,서울실버요양병원,서울특별시 중랑구 망우로 166-17,37.5919277,127.0716732,hospital,10701
702,서울연세요양병원,서울특별시 성북구 오패산로1길 1,37.6034723,127.0368213,hospital,10702
703,서울외과,서울특별시 송파구 백제고분로  214,37.5034232,127.0903244,hospital,10703
704,서울요양병원,서울특별시 동작구 성대로 43,37.4989806,126.9336803,hospital,10704
705,서울의료원(강남분원),서울특별시 강남구 봉은사로114길 43,37.5123691,127.0664019,hospital,10705
706,서울의료원장례식장,서울특별시 강남구 봉은사로114길 43,37.5123691,127.0664019,hospital,10706
707,서울장례식장,서울특별시 금천구 서부샛길  732,37.4846995,126.8746051,hospital,10707
708,서울재활병원,서울특별시 은평구 갈현로11길  30,37.605172700000004,126.9075445,hospital,10708
709,서울적십자병원(장례식장),서울특별시 종로구 새문안로 9,37.5670015,126.96703500000001,hospital,10709
710,서울정형외과,서울특별시 도봉구 마들로 699,37.672731299999995,127.0464294,hospital,10710
711,서울척병원,서울특별시 성북구 동소문로47길  8,37.6088547,127.02927120000001,hospital,10711
712,서울초이스병원,서울특별시 송파구 올림픽로 57,,,hospital,10712
713,"서울팀메이트치과,리뉴미치과(오플란트치과)",서울특별시 강서구 화곡로 157,37.5415927,126.8391239,hospital,10713
714,서울현대병원,서울특별시 강북구 도봉로 374,37.640262,127.0285325,hospital,10714
715,서울효요양병원,서울특별시 도봉구 삼양로  616,37.6580237,127.01408390000002,hospital,10715
716,서초보건소,서울특별시 서초구 남부순환로  2584,37.483569,127.032598,hospital,10716
717,석플란트 치과,서울특별시 강남구 도산대로 238,37.52093789999999,127.033243,hospital,10717
718,선양신경외과(수의원),서울특별시 강서구 양천로  699,37.5502548,126.8737377,hospital,10718
719,선의노인전문병원,서울특별시 노원구 동일로 1419,37.655306599999996,127.05985220000001,hospital,10719
720,선정신과의원,서울특별시 강서구 강서로 259,37.5488844,126.8360228,hospital,10720
721,선한이웃병원,서울특별시 노원구 화랑로 323,37.6149088,127.0636679,hospital,10721
722,성가치과,서울특별시 은평구 서오릉로  166,37.612817,126.9152531,hospital,10722
723,성누가의원,서울특별시 서초구 남부순환로315길 1,37.478924400000004,127.0089655,hospital,10723
724,성동보건소,서울특별시 성동구 마장로23길  12,37.567502600000005,127.03269109999998,hospital,10724
725,성바오로관절센터,서울특별시 동대문구 왕산로36길 7,37.579274,127.04404850000002,hospital,10725
726,성바오로병원,서울특별시 동대문구 왕산로 180,37.5792928,127.04346470000002,hospital,10726
727,성북보건소,서울특별시 성북구 화랑로 63,37.602717,127.03954660000001,hospital,10727
728,성북중앙병원,서울특별시 성북구 종암로 72,37.5968751,127.03559650000001,hospital,10728
729,성수보건분소,서울특별시 성동구 서울숲길  54,37.5479311,127.04357720000002,hospital,10729
730,성신병원,서울특별시 강북구 도봉로 181,37.624988,127.02632759999999,hospital,10730
731,성심고려병원,서울특별시 금천구 범안로 1191,37.466761600000005,126.89409750000002,hospital,10731
732,성심메디컬의원,서울특별시 중랑구 용마산로 503,37.5961232,127.0999378,hospital,10732
733,성애병원 본관,서울특별시 영등포구 여의대방로53길 22,37.512049499999996,126.92238020000002,hospital,10733
734,성애병원 장례식장,서울특별시 영등포구 여의대방로53길 22,37.512049499999996,126.92238020000002,hospital,10734
735,성지병원,서울특별시 금천구 가산로  122,37.4766045,126.89289140000001,hospital,10735
736,세란병원,서울특별시 종로구 통일로 256,37.5751835,126.95746070000001,hospital,10736
737,세브란스병원(일반병동),서울특별시 서대문구 연세로 50,37.564936700000004,126.9383335,hospital,10737
738,세브란스새병원,서울특별시 서대문구 연세로 50,37.564936700000004,126.9383335,hospital,10738
739,세이페병원,서울특별시 동대문구 한천로 49,37.566578299999996,127.0616386,hospital,10739
740,소리의원@강서점,서울특별시 강서구 강서로  215-1,37.5450178,126.83676489999999,hospital,10740
741,송도병원,서울특별시 강서구 공항대로  315,37.558511100000004,126.84279950000001,hospital,10741
742,송파참병원,서울특별시 송파구 마천로 164,37.5035432,127.137425,hospital,10742
743,송파청병원,서울특별시 송파구 백제고분로 488,37.5137931,127.1146963,hospital,10743
744,수내과,서울특별시 금천구 남부순환로  1426,37.4805499,126.9091514,hospital,10744
745,순천향대학교병원(교수연구동),서울특별시 용산구 대사관로 59,37.533803999999996,127.00425790000001,hospital,10745
746,스타병원,서울특별시 강서구 강서로  206,37.5445292,126.83805430000001,hospital,10746
747,시너지병원,서울특별시 강남구 학동로 309,37.516146,127.0365822,hospital,10747
748,시립동부병원,서울특별시 동대문구 무학로 124,37.5753635,127.0315258,hospital,10748
749,시립북부노인병원,서울특별시 중랑구 양원역로 38,37.604334,127.10774939999999,hospital,10749
750,시립은평병원,서울특별시 은평구 백련산로 90,37.5934797,126.92356389999999,hospital,10750
751,시립장애인구강진료센터,서울특별시 성동구 마장로  207,37.5667241,127.0328111,hospital,10751
752,시소모타워(강남물방울치과),서울특별시 강남구 삼성로 548,37.510623700000004,127.0550563,hospital,10752
753,신아타운(병원),서울특별시 중랑구 봉화산로 194,37.6064619,127.0947354,hospital,10753
754,신우요양병원,서울특별시 동대문구 한천로 207,37.5795382,127.0681561,hospital,10754
755,신촌리더스병원,서울특별시 마포구 서강로  82,37.5503706,126.9326895,hospital,10755
756,신촌연세병원,서울특별시 마포구 서강로 110,37.5525869,126.9337353,hospital,10756
757,신촌연세이비인후과(의원),서울특별시 마포구 신촌로 88,37.5553092,126.93531979999999,hospital,10757
758,신화병원,서울특별시 영등포구 영중로   100,37.5251061,126.9056672,hospital,10758
759,실로암안과병원,서울특별시 강서구 등촌로  181,37.5460999,126.8622409,hospital,10759
760,심청요양병원,서울특별시 성북구 보문로  86,37.5830193,127.0209729,hospital,10760
761,아산병원,서울특별시 송파구 올림픽로43길 88,37.52657620000001,127.10793500000001,hospital,10761
762,아이디병원,서울특별시 강남구 압구정로 148,37.5252071,127.02507720000001,hospital,10762
763,아이엠치과병원,서울특별시 양천구 오목로 299,37.52609,126.87108400000001,hospital,10763
764,아이제이스엠비.산부인과의원,서울특별시 마포구 월드컵로 79,37.555938,126.9098487,hospital,10764
765,아이젬산후조리원,서울특별시 은평구 서오릉로 82,37.6076981,126.9220584,hospital,10765
766,아카시아병원,서울특별시 금천구 시흥대로114길 5,37.46810670000001,126.8985623,hospital,10766
767,안강병원,서울특별시 강남구 논현로 323,37.493925399999995,127.0395906,hospital,10767
768,안세병원,서울특별시 강남구 도산대로 417,37.5237823,127.04113459999999,hospital,10768
769,안정형외과,서울특별시 서초구 효령로  221,37.483740000000004,127.0083331,hospital,10769
770,양병원,서울특별시 강동구 천호대로  1159,37.5340904,127.14008059999999,hospital,10770
771,양병원제2종합검진센터,서울특별시 강동구 진황도로 128,37.5343523,127.13980079999999,hospital,10771
772,양재 최의원,서울특별시 강남구 남부순환로  2725,37.486242700000005,127.04404609999999,hospital,10772
773,양천보건소,서울특별시 양천구 목동서로 339,37.5175447,126.8658999,hospital,10773
774,어린이치과,서울특별시 동작구 동작대로 83,37.4840222,126.9815564,hospital,10774
775,에머럴드 빌딩(BK의원),서울특별시 강남구 도산대로  122,37.5168549,127.02216489999999,hospital,10775
776,에스플란트 치과병원,서울특별시 강남구 도산대로 410,37.52298,127.04050159999998,hospital,10776
777,에이스정형외과,서울특별시 강서구 화곡로  136,37.540412200000006,126.83697120000001,hospital,10777
778,에이치큐브병원,서울특별시 도봉구 도봉로   604,37.6583061,127.04106100000001,hospital,10778
779,여러분병원,서울특별시 강남구 봉은사로  171,37.507223100000004,127.03260300000001,hospital,10779
780,연세SK병원,서울특별시 강남구 학동로4길 7,37.5110403,127.023199,hospital,10780
781,연세노블병원,서울특별시 은평구 서오릉로  37,37.604071399999995,126.92447560000001,hospital,10781
782,연세대학교 B14.일반병동,서울특별시 서대문구 연세로  50,37.564936700000004,126.9383335,hospital,10782
783,연세대학교 B2.외래진료소,서울특별시 서대문구 연세로  50,37.564936700000004,126.9383335,hospital,10783
784,연세대학교 심장혈관병원,서울특별시 서대문구 연세로  50,37.564936700000004,126.9383335,hospital,10784
785,연세대학교 안이비인후과동,서울특별시 서대문구 연세로 50,37.564936700000004,126.9383335,hospital,10785
786,연세대학교 어린이병원,서울특별시 서대문구 연세로 50,37.564936700000004,126.9383335,hospital,10786
787,연세대학교 재활병원,서울특별시 서대문구 연세로 50,37.564936700000004,126.9383335,hospital,10787
788,연세무척나은병원,서울특별시 광진구 천호대로 568-1,37.55627379999999,127.08091840000002,hospital,10788
789,연세바른병원,서울특별시 동작구 사당로 300,37.4843925,126.98058130000001,hospital,10789
790,연세방병원,서울특별시 노원구 동일로197길 11,37.6285396,127.070654,hospital,10790
791,연세병원,서울특별시 성동구 왕십리로  296,37.560649,127.0361528,hospital,10791
792,연세사랑병원,서울특별시 송파구 오금로  173,37.5097171,127.1138271,hospital,10792
793,연세사랑요양병원,서울특별시 도봉구 삼양로 574,37.6543558,127.01318729999998,hospital,10793
794,연세사랑정형외과,서울특별시 노원구 동일로 1005,37.619932299999995,127.0745435,hospital,10794
795,연세에덴병원,서울특별시 은평구 통일로 669,37.606165399999995,126.9334144,hospital,10795
796,연세영동병원,서울특별시 강동구 구천면로 202,37.540110399999996,127.1271158,hospital,10796
797,연세웰치과,서울특별시 도봉구 도봉로 480,37.648372200000004,127.0349125,hospital,10797
798,연세정형외과,서울특별시 송파구 거마로  62,37.4984225,127.1470348,hospital,10798
799,연세정형외과,서울특별시 중랑구 면목로 220,37.57258579999999,127.084153,hospital,10799
800,열린산후조리원,서울특별시 성북구 보국문로 33,37.6073777,127.010112,hospital,10800
801,영동병원,서울특별시 동대문구 한천로 4,37.5632559,127.05860459999998,hospital,10801
802,영등포한방병원,서울특별시 영등포구 영신로34길   5,37.5200717,126.90183229999998,hospital,10802
803,예닮요양병원,서울특별시 강동구 양재대로 1461,37.5364215,127.1390986,hospital,10803
804,예원요양센터,서울특별시 중랑구 용마산로 554,37.600443,127.10073600000001,hospital,10804
805,오라클피부과,서울특별시 송파구 올림픽로 102,37.5114431,127.08198629999998,hospital,10805
806,온누리병원,서울특별시 성북구 화랑로 271,37.6122209,127.0587455,hospital,10806
807,올림픽병원,서울특별시 송파구 백제고분로  283,37.5027516,127.0980197,hospital,10807
808,올림픽정형외과의원,서울특별시 송파구 중대로 68,37.4915798,127.11640890000001,hospital,10808
809,옵티마 성형외과 (보완수정안됨),서울특별시 마포구 마포대로4다길  31,37.5356552,126.94427809999999,hospital,10809
810,용산구보건소,서울특별시 용산구 반포대로 150,,,hospital,10810
811,우리들병원,서울특별시 강북구 한천로 1083,37.6425425,127.02265870000001,hospital,10811
812,우리들병원,서울특별시 강남구 학동로 445,37.5191041,127.0496303,hospital,10812
813,우이새길병원,서울특별시 도봉구 삼양로  610,37.65745020000001,127.01394479999999,hospital,10813
814,욱현하이브(요양병원),서울특별시 노원구 노원로 246,37.6396884,127.0741354,hospital,10814
815,웰튼병원,서울특별시 강서구 강서로  318,37.5540457,126.8371563,hospital,10815
816,위담한방병원,서울특별시 강남구 역삼로 430,37.501420200000005,127.0541061,hospital,10816
817,유광사병원,서울특별시 강서구 강서로  194,37.5436076,126.83890840000001,hospital,10817
818,유디 치과의원(현정빌딩),서울특별시 강남구 테헤란로 332,37.50385120000001,127.04817340000001,hospital,10818
819,유디치과의원,서울특별시 강동구 올림픽로 658,37.5399683,127.12443529999999,hospital,10819
820,윤호 함춘 병원,서울특별시 강남구 압구정로 304,37.5288466,127.03442340000002,hospital,10820
821,을지병원(본관동),서울특별시 노원구 한글비석로 68,37.6364794,127.0699355,hospital,10821
822,을지병원(의료동),서울특별시 노원구 공릉로 327,37.6359555,127.07052890000001,hospital,10822
823,을지병원(행정동),서울특별시 노원구 공릉로59나길 52,37.635679700000004,127.06985729999998,hospital,10823
824,의료시설(신애요양병원),서울특별시 노원구 동일로 1323,37.6468199,127.06260449999999,hospital,10824
825,의료시설(참좋은치과),서울특별시 은평구 연서로 73,37.605652899999995,126.9150957,hospital,10825
826,이너스치과병원,서울특별시 관악구 남부순환로 1710,37.4827662,126.93985890000002,hospital,10826
827,이대목동병원 병원동,서울특별시 양천구 안양천로 1071,37.5362859,126.8862379,hospital,10827
828,이성복치과,서울특별시 강남구 압구정로 146,37.5250761,127.02489890000001,hospital,10828
829,이엘치과의원,서울특별시 영등포구 당산로 223,37.5337386,126.90117109999998,hospital,10829
830,이영수의원,서울특별시 도봉구 도봉로   477,37.6484508,127.0342193,hospital,10830
831,이지애 성형외과 병원,서울특별시 강남구 압구정로30길 67,37.5229482,127.02927040000002,hospital,10831
832,이지펠리스(한걸음병원),서울특별시 중랑구 망우로 316,37.596487200000006,127.08755590000001,hospital,10832
833,인애가병원,서울특별시 송파구 마천로15길 6,37.5052764,127.13517340000001,hospital,10833
834,인애가한방병원(우신향한방병원),서울특별시 강동구 성내로6길  15,37.528861600000006,127.12299180000001,hospital,10834
835,인정병원,서울특별시 은평구 응암로  164,37.5865312,126.91635190000001,hospital,10835
836,인화재활병원,서울특별시 양천구 신월로 156,37.5173415,126.84117260000001,hospital,10836
837,자생한방병원(대경프라자),서울특별시 양천구 신목로 102,37.523590000000006,126.8757936,hospital,10837
838,장스여성병원,서울특별시 중랑구 망우로 411,37.599654,127.09774409999999,hospital,10838
839,재활병원,서울특별시 강동구 양재대로 156,,,hospital,10839
840,제일 정형외과 병원,서울특별시 강남구 테헤란로 332,37.50385120000001,127.04817340000001,hospital,10840
841,제일병원(본관),서울특별시 중구 마른내로 9,37.56511,126.98887090000001,hospital,10841
842,제일정형외과의원,서울특별시 노원구 화랑로 463,37.619004,127.07866990000001,hospital,10842
843,조앤조병원,서울특별시 중랑구 망우로 474,37.6003158,127.1047423,hospital,10843
844,종로보건소,서울특별시 종로구 자하문로19길 36,37.581841100000005,126.9692197,hospital,10844
845,주영빌딩(가족사랑정신과의원),서울특별시 강서구 양천로  461,37.563055799999994,126.85223570000001,hospital,10845
846,중구보건분소청사,서울특별시 중구 다산로 253,37.5656593,127.0159019,hospital,10846
847,중구보건소청사,서울특별시 중구 다산로39길 16,37.5645915,127.01511049999999,hospital,10847
848,중랑노인전문요양원,서울특별시 중랑구 양원역로 38,37.604334,127.10774939999999,hospital,10848
849,중랑프라임병원,서울특별시 중랑구 공릉로 76,37.6172311,127.079474,hospital,10849
850,중앙대학교병원,서울특별시 동작구 흑석로 102,37.5067481,126.96078390000001,hospital,10850
851,중앙병원장례식장,서울특별시 강서구 방화동로  12,37.562194700000006,126.8092598,hospital,10851
852,차병원(별관),서울특별시 강남구 논현로 566,37.5067941,127.035055,hospital,10852
853,참사랑병원,서울특별시 은평구 연서로  10,37.599863299999996,126.9164515,hospital,10853
854,참소망의원,서울특별시 강동구 천호옛길 48,37.5333949,127.123392,hospital,10854
855,참요양병원,서울특별시 강서구 강서로  182,37.5428857,126.83968829999999,hospital,10855
856,참포도나무병원,서울특별시 서초구 바우뫼로35길 32,37.47993579999999,127.0386919,hospital,10856
857,창동제일의원,서울특별시 도봉구 노해로65길 17-13,37.6519078,127.0455297,hospital,10857
858,천사병원,서울특별시 동대문구 서울시립대로 57,37.5765433,127.0477019,hospital,10858
859,첫단추조산원,서울특별시 성북구 동소문로  48,37.5903529,127.01102820000001,hospital,10859
860,청구성심병원,서울특별시 은평구 통일로  873,37.6208615,126.9197006,hospital,10860
861,청박메디미의원,서울특별시 강남구 압구정로28길 17,37.525446200000005,127.02789979999999,hospital,10861
862,청산입시학원(청산빌딩튼튼병원)G8-F2,서울특별시 강서구 화곡로  154,37.541002399999996,126.8389473,hospital,10862
863,청솔한의원,서울특별시 동작구 국사봉1길 3,37.4990628,126.92877,hospital,10863
864,청플란트치과,서울특별시 동작구 동작대로 79-1,37.4837367,126.98159790000001,hospital,10864
865,청하병원,서울특별시 동작구 장승배기로 108,37.507275,126.9401875,hospital,10865
866,최수년 산부인과(의원),서울특별시 마포구 신촌로 240,37.5569389,126.9524429,hospital,10866
867,최차혜병원,서울특별시 광진구 동일로30길 9,37.5475805,127.0677088,hospital,10867
868,최차혜병원치과,서울특별시 광진구 동일로30길 5,37.547602399999995,127.06744209999998,hospital,10868
869,친구병원,서울특별시 강동구 올림픽로 684,37.5422911,127.12531070000001,hospital,10869
870,코리아병원,서울특별시 동대문구 장한로 143,37.5731883,127.071546,hospital,10870
871,퀸스메디산부인과,서울특별시 노원구 동일로 1059,37.6245378,127.0729963,hospital,10871
872,큰누리메디컬센터,서울특별시 성북구 보문로  93,37.5835724,127.02007900000001,hospital,10872
873,큰사랑노인전문병원,서울특별시 강남구 논현로2길 30,37.47301420000001,127.05273899999999,hospital,10873
874,탑 메디칼센타,서울특별시 강동구 천호대로  1434,,,hospital,10874
875,태릉마이크로병원,서울특별시 노원구 동일로 987,37.6182739,127.07487009999998,hospital,10875
876,튼튼병원,서울특별시 강동구 천호대로 1133,37.5347027,127.1375125,hospital,10876
877,튼튼병원,서울특별시 은평구 은평로 200-1,37.601154,126.93000900000001,hospital,10877
878,튼튼병원,서울특별시 동대문구 답십리로 261,37.5727378,127.0693818,hospital,10878
879,튼튼병원,서울특별시 은평구 은평로 200-1,37.601154,126.93000900000001,hospital,10879
880,튼튼병원(용도변경),서울특별시 강남구 영동대로 713,37.5213099,127.055777,hospital,10880
881,튼튼성모정형외과의원,서울특별시 강서구 화곡로 111,37.5402275,126.8342017,hospital,10881
882,파워스빌딩(린산부인과 입원동),서울특별시 동대문구 답십리로 266,37.5723194,127.0699469,hospital,10882
883,파워스빌딩(린산부인과),서울특별시 동대문구 답십리로 266,37.5723194,127.0699469,hospital,10883
884,편강한의원,서울특별시 서초구 서운로1길  21,37.4843532,127.02839440000001,hospital,10884
885,포근한노인전문 병원,서울특별시 강북구 도봉로 266,37.632297799999996,127.02419669999999,hospital,10885
886,포근한맘요양병원,서울특별시 도봉구 삼양로 606,37.657077,127.01383870000001,hospital,10886
887,하나 이비인후과 병원,서울특별시 강남구 역삼로 245,37.4979432,127.04297820000001,hospital,10887
888,하나효요양원,서울특별시 은평구 서오릉로  149,37.6116011,126.9162395,hospital,10888
889,하이트 치과의원(쌍봉빌딩),서울특별시 강남구 언주로  874,37.528591,127.03414509999999,hospital,10889
890,학교법인 인제학원 인당관,서울특별시 중구 동호로 202,37.5560071,127.0101243,hospital,10890
891,한강성심병원,서울특별시 영등포구 버드나루로  55,37.5234398,126.91035430000001,hospital,10891
892,한강성심병원별관1,서울특별시 영등포구 버드나루로7길 12,37.5231811,126.9096992,hospital,10892
893,한강성심병원별관2,서울특별시 영등포구 버드나루로7길 13,37.522580700000006,126.90942759999999,hospital,10893
894,한강성심병원별관3,서울특별시 영등포구 버드나루로   55,37.5234398,126.91035430000001,hospital,10894
895,한국원자력의학원자력병원,서울특별시 노원구 노원로 75,37.6288213,127.08269650000001,hospital,10895
896,한누리치과병원,서울특별시 중구 수표로 31,37.564041700000004,126.98979399999999,hospital,10896
897,한마음종합클리닉,서울특별시 도봉구 방학로 163,37.662180299999996,127.03400079999999,hospital,10897
898,한맘 플러스 병원,서울특별시 강남구 역삼로 509,37.5035364,127.0594663,hospital,10898
899,한서병원,서울특별시 강남구 논현로86길 21,37.5003351,127.0391867,hospital,10899
900,한성빌딩(규림한의원),서울특별시 양천구 목동로 201,37.5264583,126.8639232,hospital,10900
901,한양대병원,서울특별시 성동구 왕십리로 222,37.554503600000004,127.04661100000001,hospital,10901
902,한일병원,서울특별시 도봉구 우이천로 308,37.646140100000004,127.02912279999998,hospital,10902
903,햇빛여성전문병원,서울특별시 강북구 도봉로 131,37.6205839,127.0280741,hospital,10903
904,햇살가득한가정의학과의원,서울특별시 강서구 등촌로  59-1,37.5353742,126.8632043,hospital,10904
905,행복한병원(삼부빌딩),서울특별시 중랑구 망우로 403,37.599422499999996,127.0968725,hospital,10905
906,현대프라자(의원),서울특별시 양천구 중앙로32길 61,37.5200803,126.86031899999999,hospital,10906
907,현산부인과,서울특별시 서초구 방배로  127,37.4852611,126.99485179999999,hospital,10907
908,혜담요양병원,서울특별시 도봉구 도봉로152길 26,37.6692231,127.0452965,hospital,10908
909,혜당한방병원,서울특별시 마포구 독막로 32,37.548025200000005,126.91679599999999,hospital,10909
910,혜민병원,서울특별시 광진구 자양로 85,37.535407899999996,127.08362460000001,hospital,10910
911,호산산부인과,서울특별시 강남구 언주로 871,37.5285643,127.0333467,hospital,10911
912,홍익병원본관,서울특별시 양천구 목동로 225,37.528463099999996,126.86363850000001,hospital,10912
913,화곡보건분소,서울특별시 강서구 월정로30길  96,37.535470000000004,126.8411107,hospital,10913
914,화인웰산후조리원,서울특별시 성북구 보문로  35,37.5787075,127.0226477,hospital,10914
915,황세영산부인과(더와이즈병원),서울특별시 강서구 화곡로  188,37.5422531,126.8423672,hospital,10915
916,효인병원,서울특별시 금천구 남부순환로  1372,37.4794593,126.9034562,hospital,10916
917,희명병원,서울특별시 금천구 시흥대로  224,37.453747,126.9012821,hospital,10917
918,힘찬병원,서울특별시 강서구 강서로56길  38,37.5592026,126.8406854,hospital,10918
919,힘찬병원,서울특별시 은평구 서오릉로  45,37.6047698,126.9238396,hospital,10919
920,LH서울지역본부,서울특별시 강남구 개포로 621,37.494133500000004,127.07881499999999,publicinstitution,10920
921,SH공사,서울특별시 강남구 테헤란로 114-11,,,publicinstitution,10921
922,가락1동주민센터,서울특별시 송파구 송파대로 35,,,publicinstitution,10922
923,가락2동주민센터,서울특별시 송파구 중대로24길 6,37.4902451,127.1187912,publicinstitution,10923
924,가락본동주민센터,서울특별시 송파구 송파대로28길 3,37.493863299999994,127.11876670000001,publicinstitution,10924
925,가락지구대,서울특별시 송파구 중대로 179,37.498193,127.12532340000001,publicinstitution,10925
926,가락지구대,서울특별시 송파구 중대로 17,37.4898719,127.1108425,publicinstitution,10926
927,가리봉동주민센터,서울특별시 구로구 디지털로26길 5,37.4813921,126.8936094,publicinstitution,10927
928,가리봉지구대,서울특별시 구로구 디지털로31길 90,37.4875908,126.8919379,publicinstitution,10928
929,가리봉치안센터,서울특별시 구로구 남부순환로107가길 16,37.479644,126.89299399999999,publicinstitution,10929
930,가산동복합청사,서울특별시 금천구 가산로  129,37.4768947,126.89177509999999,publicinstitution,10930
931,가산우체국,서울특별시 금천구 남부순환로 1288,37.4784533,126.89380770000001,publicinstitution,10931
932,가양1동주민센터,서울특별시 강서구 허준로 30,37.569497,126.8447222,publicinstitution,10932
933,가양2동주민센터,서울특별시 강서구 허준로  93,37.5673859,126.85125759999998,publicinstitution,10933
934,가양2치안센터,서울특별시 강서구 허준로 95,37.5671284,126.8513939,publicinstitution,10934
935,가양3동주민센터,서울특별시 강서구 허준로  202,37.561093799999995,126.8605592,publicinstitution,10935
936,가양동우체국,서울특별시 강서구 허준로 95-5,37.567246399999995,126.8515746,publicinstitution,10936
937,가양지구대,서울특별시 강서구 화곡로65길  63,37.559264399999996,126.85012420000001,publicinstitution,10937
938,가좌지구대,서울특별시 서대문구 가재울로4길 51,37.576049700000006,126.9240553,publicinstitution,10938
939,가회동주민센터,서울특별시 종로구 북촌로  35,37.580056899999995,126.9848011,publicinstitution,10939
940,갈현1동주민센터,서울특별시 은평구 갈현로 301,37.6237021,126.9167189,publicinstitution,10940
941,갈현2동 주민센터,서울특별시 은평구 연서로27길 31-6,37.6185866,126.9158385,publicinstitution,10941
942,강남경찰서,서울특별시 강남구 선릉로116길 57,37.5146351,127.04676620000001,publicinstitution,10942
943,강남교육청,서울특별시 강남구 학동로 426,37.517305,127.04750200000001,publicinstitution,10943
944,강남우체국,서울특별시 강남구 언주로 721,37.518378000000006,127.03444609999998,publicinstitution,10944
945,강동경찰서,서울특별시 강동구 성내로 33,37.5292619,127.12385049999999,publicinstitution,10945
946,강동구청,서울특별시 강동구 성내로 25,37.530126,127.12377079999999,publicinstitution,10946
947,강동구청 별관,서울특별시 강동구 성내로3가길 19,37.5306399,127.12394509999999,publicinstitution,10947
948,강동구청 성안별관,서울특별시 강동구 성내로3가길 19,37.5306399,127.12394509999999,publicinstitution,10948
949,강동우체국,서울특별시 강동구 양재대로112길 57,37.536308899999995,127.1430813,publicinstitution,10949
950,강북구청,서울특별시 강북구 도봉로89길  13,37.639748,127.02548200000001,publicinstitution,10950
951,강북우체국,서울특별시 강북구 솔매로50길 55,37.6240798,127.02811489999999,publicinstitution,10951
952,강서교육청,서울특별시 양천구 월정로 269,37.541544200000004,126.8294866,publicinstitution,10952
953,강서구청,서울특별시 강서구 화곡로 302,37.550937,126.84964199999999,publicinstitution,10953
954,강서구청 화곡별관,서울특별시 강서구 화곡로44나길 72,37.5497778,126.8509925,publicinstitution,10954
955,강서세무소,서울특별시 영등포구 선유로 243,37.534954600000006,126.89624280000001,publicinstitution,10955
956,강서우체국,서울특별시 강서구 강서로  448,37.5652661,126.84074740000001,publicinstitution,10956
957,개봉1동주민센터,서울특별시 구로구 경인로33길 52,37.500169,126.85152509999999,publicinstitution,10957
958,개봉2동주민센터,서울특별시 구로구 개봉로16가길 17,37.490850099999996,126.85654640000001,publicinstitution,10958
959,개봉3동주민센터,서울특별시 구로구 개봉로3길  47-5,37.4860114,126.8538449,publicinstitution,10959
960,개봉3동치안센터,서울특별시 구로구 개봉로17길 14,37.491776,126.85514280000001,publicinstitution,10960
961,개봉지구대,서울특별시 구로구 개봉로18길 5,37.4918554,126.8564439,publicinstitution,10961
962,개봉치안센터,서울특별시 구로구 경인로 293,37.4980294,126.85292620000001,publicinstitution,10962
963,개포 지구대,서울특별시 강남구 개포로  261,37.4797436,127.05118780000001,publicinstitution,10963
964,개포1동 우체국,서울특별시 강남구 선릉로 36,37.4829899,127.06049920000001,publicinstitution,10964
965,개포1동 주민센터,서울특별시 강남구 개포로 310-17,37.4819717,127.0575019,publicinstitution,10965
966,개포4동 주민센터,서울특별시 강남구 개포로38길 12,37.4788478,127.05163600000002,publicinstitution,10966
967,개포동 우체국,서울특별시 강남구 영동대로3길 7,37.488112,127.07376509999999,publicinstitution,10967
968,거여1동주민센터,서울특별시 송파구 오금로53길 32,37.4969522,127.14331509999998,publicinstitution,10968
969,거여2동주민센터,서울특별시 송파구 거마로2길  1,37.4935545,127.14513170000001,publicinstitution,10969
970,거여동우체국,서울특별시 송파구 양산로 3,37.4895808,127.14258799999999,publicinstitution,10970
971,건강보험공단 동대문지사,서울특별시 동대문구 고산자로 420,37.5774984,127.0389186,publicinstitution,10971
972,경찰청사,서울특별시 서대문구 통일로  97,37.56336470000001,126.9674929,publicinstitution,10972
973,경희대학교우체국,서울특별시 동대문구 회기로 1,,,publicinstitution,10973
974,고덕 우체국,서울특별시 강동구 고덕로 362,37.5564513,127.16585,publicinstitution,10974
975,고덕1 치안센터,서울특별시 강동구 고덕로55길 63,37.554994799999996,127.1311595,publicinstitution,10975
976,고덕1동 주민센터,서울특별시 강동구 아리수로54길 55,,,publicinstitution,10976
977,고덕2 치안센터,서울특별시 강동구 고덕로 364,37.5564513,127.16585,publicinstitution,10977
978,고덕2동 주민센터,서울특별시 강동구 아리수로78길 43-12,37.5605161,127.1643852,publicinstitution,10978
979,고등법원,서울특별시 서초구 서초중앙로 157,37.4961251,127.0110358,publicinstitution,10979
980,고려에이트리움(국민연금공단 용산지사),서울특별시 용산구 한강대로 259,37.5415883,126.9724318,publicinstitution,10980
981,고척1동주민센터,서울특별시 구로구 중앙로3길 18-8,37.50041289999999,126.8627965,publicinstitution,10981
982,고척2동 주민센터,서울특별시 구로구 중앙로15길 22,37.5067059,126.8586178,publicinstitution,10982
983,고척동 우체국,서울특별시 구로구 중앙로 76,37.50444,126.86174550000001,publicinstitution,10983
984,고척지구대,서울특별시 구로구 중앙로3길 18-8,37.50041289999999,126.8627965,publicinstitution,10984
985,고척치안센터,서울특별시 구로구 중앙로3길 18-8,37.50041289999999,126.8627965,publicinstitution,10985
986,곰달래지구대,서울특별시 강서구 곰달래로59길 12,37.5329064,126.86316299999999,publicinstitution,10986
987,공덕동주민센터,서울특별시 마포구 만리재옛길 84,37.550185299999995,126.9600332,publicinstitution,10987
988,공덕지구대,서울특별시 마포구 만리재로 14,37.5440033,126.9528768,publicinstitution,10988
989,공릉2동치안센터,서울특별시 노원구 노원로1길 2,37.6226504,127.08664080000001,publicinstitution,10989
990,공릉동우체국,서울특별시 노원구 동일로 988,37.6184809,127.07573629999999,publicinstitution,10990
991,공릉치안센터,서울특별시 노원구 공릉로 189,37.6267194,127.07893119999999,publicinstitution,10991
992,공항동우체국,서울특별시 강서구 공항대로  41,37.561507399999996,126.81193950000001,publicinstitution,10992
993,공항동주민센터,서울특별시 강서구 송정로 45,37.558785,126.81009350000001,publicinstitution,10993
994,공항지구대,서울특별시 강서구 방화동로  5,37.5623593,126.8082939,publicinstitution,10994
995,관세청 서울본부세관,서울특별시 강남구 학동로 212,37.514682,127.0320834,publicinstitution,10995
996,관악구청,서울특별시 관악구 남부순환로 1435,37.4815018,126.9102348,publicinstitution,10996
997,관악산지구대,서울특별시 관악구 신림로28길 1,37.4737395,126.93540420000001,publicinstitution,10997
998,관악우체국,서울특별시 관악구 남부순환로 1643,37.4850281,126.93314699999999,publicinstitution,10998
999,광나루지구대,서울특별시 광진구 아차산로 567,37.5444545,127.1033392,publicinstitution,10999
1000,광운대우체국,서울특별시 노원구 광운로6길 53,37.6191377,127.0600582,publicinstitution,11000
1001,광장동주민센터,서울특별시 광진구 광장로 52,37.546892,127.103025,publicinstitution,11001
1002,광진경찰서,서울특별시 광진구 자양로 167,37.5428595,127.08389790000001,publicinstitution,11002
1003,광진구청본관,서울특별시 광진구 자양로 117,37.538616999999995,127.082375,publicinstitution,11003
1004,광진구청제1별관,서울특별시 광진구 자양로 117,37.538616999999995,127.082375,publicinstitution,11004
1005,광진우체국,서울특별시 광진구 강변역로 2,37.5378744,127.09034879999999,publicinstitution,11005
1006,광화문우체국,서울특별시 종로구 종로 6,37.5698583,126.9781097,publicinstitution,11006
1007,광희동청사,서울특별시 중구 동호로5길 19,37.55187120000001,127.01257890000001,publicinstitution,11007
1008,광희지구대,서울특별시 중구 퇴계로8길 46,37.557292700000005,126.97934240000001,publicinstitution,11008
1009,교남동 주민센터,서울특별시 종로구 송월길 154,37.571993299999995,126.9619051,publicinstitution,11009
1010,교남동 파출소,서울특별시 종로구 통일로 196-9,,,publicinstitution,11010
1011,교통센터,서울특별시 중랑구 공릉로2가길 6,37.6124585,127.07878000000001,publicinstitution,11011
1012,구로1 치안센터,서울특별시 구로구 구일로 52,37.491183500000005,126.87515690000001,publicinstitution,11012
1013,구로1동 주민센터,서울특별시 구로구 구일로4길 57,37.4930594,126.87577250000001,publicinstitution,11013
1014,구로2 치안센터,서울특별시 구로구 구로동로 141,37.4913771,126.8834703,publicinstitution,11014
1015,구로2동 주민센터,서울특별시 구로구 구로동로 141,37.4913771,126.8834703,publicinstitution,11015
1016,구로3동 주민센터,서울특별시 구로구 디지털로31길 38-9,37.4862369,126.8933,publicinstitution,11016
1017,구로4동 우체국,서울특별시 구로구 구로동로 130-2,37.4903468,126.8844281,publicinstitution,11017
1018,구로4동 주민센터,서울특별시 구로구 구로동로28길 94,37.49161289999999,126.889159,publicinstitution,11018
1019,구로경찰서,서울특별시 구로구 가마산로 235,37.4948934,126.8867298,publicinstitution,11019
1020,구로공단 우체국,서울특별시 구로구 디지털로26길 144,37.4832951,126.8985096,publicinstitution,11020
1021,구로구청,서울특별시 구로구 가마산로 245,37.495472,126.88753600000001,publicinstitution,11021
1022,구로세무소,서울특별시 영등포구 경인로   778,37.5135076,126.89981809999999,publicinstitution,11022
1023,구산동주민센터,서울특별시 은평구 갈현로17길 10,37.6117664,126.91038209999999,publicinstitution,11023
1024,구의제1동주민센터,서울특별시 광진구 광나루로36길 56,37.542500700000005,127.08568740000001,publicinstitution,11024
1025,구의제2동주민센터,서울특별시 광진구 천호대로136길 55,37.5472469,127.0899376,publicinstitution,11025
1026,구일지구대,서울특별시 구로구 도림로 63,37.4892552,126.89069450000001,publicinstitution,11026
1027,국민건강보험강서지사,서울특별시 강서구 화곡로  179,37.5423093,126.8413012,publicinstitution,11027
1028,국민건강보험공단,서울특별시 종로구 창경궁로 112-7,37.572576500000004,126.99809350000001,publicinstitution,11028
1029,국민건강보험공단 강남북부지사,서울특별시 강남구 압구정로38길 7,37.5283546,127.0326553,publicinstitution,11029
1030,"국민건강보험공단 용산지사(7층,8층)",서울특별시 용산구 한강대로30길 25,37.5274255,126.96884990000001,publicinstitution,11030
1031,국민건강보험공단 중랑지사,서울특별시 중랑구 망우로 262,37.5950888,127.0817658,publicinstitution,11031
1032,국민건강보험공단광진지사,서울특별시 광진구 구의강변로 45,37.534870399999996,127.09131880000001,publicinstitution,11032
1033,국민건강보험노원지사,서울특별시 노원구 노해로 447,37.6539717,127.05776809999999,publicinstitution,11033
1034,국민연금 동대문중랑지사,서울특별시 동대문구 왕산로 6,37.575739899999995,127.0244887,publicinstitution,11034
1035,"국민연금공단노원지사(KT8,층)",서울특별시 노원구 노해로 502,37.6544479,127.0636943,publicinstitution,11035
1036,국세청,서울특별시 종로구 종로5길 86,37.574220700000005,126.9798854,publicinstitution,11036
1037,국세청 효제별관,서울특별시 종로구 대학로 42,37.574963399999994,127.0026946,publicinstitution,11037
1038,군자동주민센터,서울특별시 광진구 군자로  151,37.555171,127.0759043,publicinstitution,11038
1039,금남파츨소,서울특별시 성동구 독서당로 286-1,37.5476374,127.02106570000001,publicinstitution,11039
1040,금호1가동주민센터,서울특별시 성동구 행당로 15,37.5548948,127.02166909999998,publicinstitution,11040
1041,"금호2,3가동주민센터",서울특별시 성동구 무수막18길 1,37.553198200000004,127.0209188,publicinstitution,11041
1042,금호2가우체국,서울특별시 성동구 금호로11길    2,37.5548291,127.01966770000001,publicinstitution,11042
1043,금호4가동주민센터,서울특별시 성동구 독서당로52가길  2,,,publicinstitution,11043
1044,금호치안센터,서울특별시 성동구 금호로13나길 13-7,37.5449355,127.0221874,publicinstitution,11044
1045,길2동치안센터,서울특별시 강동구 천호대로17길 6,,,publicinstitution,11045
1046,길동 주민센터,서울특별시 강동구 명일로 22-1,,,publicinstitution,11046
1047,길음1동주민센터,서울특별시 성북구 길음로 92,37.6104816,127.0194247,publicinstitution,11047
1048,길음2동주민센터,서울특별시 성북구 삼양로2길 70,37.6066647,127.0273155,publicinstitution,11048
1049,길음지구대,서울특별시 성북구 삼양로13길 51,37.6105727,127.0192675,publicinstitution,11049
1050,낙성대주민센터,서울특별시 관악구 난곡로30길  40,37.4709624,126.921641,publicinstitution,11050
1051,낙성대지구대,서울특별시 관악구 낙성대로 2,37.478304200000004,126.9594672,publicinstitution,11051
1052,난곡우체국,서울특별시 관악구 난곡로 275,37.4785573,126.9148986,publicinstitution,11052
1053,남가좌1동주민센터,서울특별시 서대문구 수색로2길 48,37.5706234,126.9155555,publicinstitution,11053
1054,남가좌2동주민센터,서울특별시 서대문구 증가로10길 28,37.5784441,126.92388670000001,publicinstitution,11054
1055,남대문경찰서,서울특별시 중구 퇴계로 303-9,37.5644653,127.0050513,publicinstitution,11055
1056,남대문파출소,서울특별시 중구 퇴계로 375-1,37.565273,127.0133929,publicinstitution,11056
1057,남영동우체국,서울특별시 용산구 두텁바위로 6-1,37.545083,126.972825,publicinstitution,11057
1058,남영동주민센터,서울특별시 용산구 두텁바위로  25,37.5457834,126.97484240000001,publicinstitution,11058
1059,남태령지구대,서울특별시 서초구 동작대로 34,37.479538500000004,126.98213359999998,publicinstitution,11059
1060,내곡동주민센터,서울특별시 서초구 염곡말길 9,37.4619102,127.0511936,publicinstitution,11060
1061,내발산문화센터,서울특별시 강서구 강서로52길  89,37.5575102,126.84320120000001,publicinstitution,11061
1062,노동부남부지청,서울특별시 영등포구 선유로  120,37.524506,126.8915686,publicinstitution,11062
1063,노들(본동)지구대,서울특별시 동작구 노량진로 248,37.512397299999996,126.9536507,publicinstitution,11063
1064,노량진1동주민센터,서울특별시 동작구 장승배기로28길 30,37.512308000000004,126.94201299999999,publicinstitution,11064
1065,노량진2동주민센터,서울특별시 동작구 장승배기로19길 48,37.508509000000004,126.937352,publicinstitution,11065
1066,노량진2동파출소,서울특별시 동작구 장승배기로 89,37.5054614,126.9398051,publicinstitution,11066
1067,노량진우체국,서울특별시 동작구 노량진로 224,37.5124571,126.95065020000001,publicinstitution,11067
1068,노원세무소,서울특별시 도봉구 노해로69길  14,37.6533737,127.0511875,publicinstitution,11068
1069,노원역지구대,서울특별시 노원구 노원로 431,37.65502,127.06693500000002,publicinstitution,11069
1070,논현2동 주민센터(문화센터),서울특별시 강남구 학동로 43-17,,,publicinstitution,11070
1071,논현지구대,서울특별시 강남구 학동로 227,37.51521629999999,127.03386370000001,publicinstitution,11071
1072,능동주민센터,서울특별시 광진구 천호대로112길 55,37.5537641,127.08056940000002,publicinstitution,11072
1073,답십리1동주민센터,서울특별시 동대문구 사가정로  30,37.57195,127.05108,publicinstitution,11073
1074,답십리2동주민센터,서울특별시 동대문구 한천로11길  18,37.5674109,127.0612929,publicinstitution,11074
1075,답십리우체국,서울특별시 동대문구 사가정로 7,37.5706093,127.0490185,publicinstitution,11075
1076,답십리지구대,서울특별시 동대문구 답십리로41길 34,37.5735875,127.0533723,publicinstitution,11076
1077,당고개파출소,서울특별시 노원구 상계로 221,37.663889399999995,127.0752308,publicinstitution,11077
1078,당곡지구대,서울특별시 관악구 남부순환로191길 12,37.4859769,126.9343917,publicinstitution,11078
1079,당산1동주민센터,서울특별시 영등포구 양산로23길  11,37.5249643,126.897443,publicinstitution,11079
1080,당산2동주민센터,서울특별시 영등포구 당산로 235,37.5347091,126.90210590000001,publicinstitution,11080
1081,당산우체국,서울특별시 영등포구 당산로 102,37.5236893,126.8964491,publicinstitution,11081
1082,당현지구대,서울특별시 노원구 노원로17길 64,37.6420356,127.06835929999998,publicinstitution,11082
1083,대검찰청,서울특별시 서초구 반포대로 157,37.493937200000005,127.00517090000001,publicinstitution,11083
1084,대림1동주민센터,서울특별시 영등포구 디지털로 441,37.4954685,126.905818,publicinstitution,11084
1085,대림1동지구대,서울특별시 영등포구 시흥대로  681,37.4922911,126.90875290000001,publicinstitution,11085
1086,대림2동주민센터,서울특별시 영등포구 대림로  170,37.49615120000001,126.89962179999999,publicinstitution,11086
1087,대림3 파출소,서울특별시 영등포구 대림로 197,37.4983286,126.89804509999999,publicinstitution,11087
1088,대림3동주민센터,서울특별시 영등포구 대림로 197,37.4983286,126.89804509999999,publicinstitution,11088
1089,대림우체국,서울특별시 영등포구 대림로 85,37.489697,126.904575,publicinstitution,11089
1090,대림파출소,서울특별시 영등포구 대림로23길 16-1,37.493443799999994,126.8987176,publicinstitution,11090
1091,대방(신대방2동)파출소,서울특별시 동작구 여의대방로24길 106,37.498917999999996,126.925852,publicinstitution,11091
1092,대방동주민센터,서울특별시 동작구 여의대방로44길 20,37.508133,126.92635,publicinstitution,11092
1093,대방지구대,서울특별시 동작구 신대방1다길 24,37.48665220000001,126.9059495,publicinstitution,11093
1094,대왕 파출소,서울특별시 강남구 헌릉로 623,37.4651761,127.1073625,publicinstitution,11094
1095,대조동 주민센터,서울특별시 은평구 연서로20길 24-3,37.614182,126.92083240000001,publicinstitution,11095
1096,대조동우체국,서울특별시 은평구 통일로71길  20,37.612902000000005,126.9266998,publicinstitution,11096
1097,대학동주민센터,서울특별시 관악구 봉천로 279-8,37.4881777,126.93280259999999,publicinstitution,11097
1098,대학로파출소,서울특별시 종로구 이화장2길 33,37.578621999999996,127.0060598,publicinstitution,11098
1099,도곡치안센터,서울특별시 강남구 남부순환로378길  29,37.4845875,127.0468472,publicinstitution,11099
1100,도림동주민센터,서울특별시 영등포구 도영로7길  10,37.5094857,126.89598980000001,publicinstitution,11100
1101,도봉1동우체국,서울특별시 도봉구 도봉로  871,37.6822346,127.0454125,publicinstitution,11101
1102,도봉1동주민센터,서울특별시 도봉구 도봉로169나길   22,37.6786805,127.04335859999999,publicinstitution,11102
1103,도봉1동치안센터,서울특별시 도봉구 도봉로169나길   49,37.6774247,127.0438471,publicinstitution,11103
1104,도봉2동우체국,서울특별시 도봉구 마들로  727,37.6750654,127.0471061,publicinstitution,11104
1105,도봉2동파출소,서울특별시 도봉구 도봉로180나길 33,37.684021200000004,127.04928659999999,publicinstitution,11105
1106,도봉2주민센터 <도봉서원복지관>,서울특별시 도봉구 마들로  668,37.6696521,127.04655859999998,publicinstitution,11106
1107,도봉경찰서,서울특별시 도봉구 노해로  403,37.653448700000006,127.052775,publicinstitution,11107
1108,도봉구청,서울특별시 도봉구 마들로  656,37.6687169,127.04716100000002,publicinstitution,11108
1109,도봉세무서,서울특별시 강북구 도봉로 117,37.6197519,127.0282597,publicinstitution,11109
1110,도화동주민센터,서울특별시 마포구 도화2길 77,37.537589000000004,126.95021470000002,publicinstitution,11110
1111,도화자치회관,서울특별시 마포구 도화4길 53,37.5395433,126.9519169,publicinstitution,11111
1112,도화치안센터,서울특별시 마포구 도화길 40,37.5413006,126.95021609999999,publicinstitution,11112
1113,독산1동주민센터,서울특별시 금천구 시흥대로123길 11,37.4702285,126.89704240000002,publicinstitution,11113
1114,독산1동주민센터분소,서울특별시 금천구 한내로 67-17,,,publicinstitution,11114
1115,독산2동 주민센터,서울특별시 금천구 범안로 1240-7,37.4661409,126.89977879999999,publicinstitution,11115
1116,독산3동 주민센터,서울특별시 금천구 독산로  317,37.4751889,126.90318090000001,publicinstitution,11116
1117,독산4동청사,서울특별시 금천구 독산로 232,37.4675814,126.9021855,publicinstitution,11117
1118,돈암1동주민센터,서울특별시 성북구 정릉로 394,37.6034235,127.02636809999998,publicinstitution,11118
1119,돈암2동주민센터,서울특별시 성북구 흥천사길  7,37.5980218,127.0105375,publicinstitution,11119
1120,돈암우체국,서울특별시 성북구 보문로  178,37.5901987,127.0157085,publicinstitution,11120
1121,돈암지구대,서울특별시 성북구 아리랑로5길 54,37.597350399999996,127.0124172,publicinstitution,11121
1122,동구로우체국,서울특별시 구로구 구로중앙로18길 57,37.4961805,126.89210929999999,publicinstitution,11122
1123,동대문경찰서,서울특별시 동대문구 약령시로21길  29,37.585100399999995,127.04576429999999,publicinstitution,11123
1124,동대문세무서별관,서울특별시 성북구 보문로  52,37.5802242,127.02262340000001,publicinstitution,11124
1125,동대문우체국,서울특별시 동대문구 천호대로 4,37.57496810000001,127.0239418,publicinstitution,11125
1126,동묘파출소,서울특별시 종로구 종로58길 19,37.5727073,127.0176875,publicinstitution,11126
1127,동부교육청,서울특별시 동대문구 전농로 168,37.579868,127.0567259,publicinstitution,11127
1128,동선동주민센터,서울특별시 성북구 동소문로26길  27,37.5939846,127.0204203,publicinstitution,11128
1129,동소문우체국,서울특별시 성북구 성북로2길 31,37.5896544,127.00740330000001,publicinstitution,11129
1130,동작경찰서,서울특별시 동작구 노량진로 148,37.5131459,126.94285959999999,publicinstitution,11130
1131,동작구청,서울특별시 동작구 장승배기로 161,37.51245,126.9395,publicinstitution,11131
1132,동작우체국,서울특별시 동작구 여의대방로22길 77,37.4980518,126.9243757,publicinstitution,11132
1133,두산아파트(면목7동우체국),서울특별시 중랑구 면목로37길 57,37.5801261,127.08299869999999,publicinstitution,11133
1134,둔촌1동 주민센터,서울특별시 강동구 양재대로84길 31,37.523491799999995,127.13672949999999,publicinstitution,11134
1135,둔촌2 치안센터,서울특별시 강동구 양재대로6길  35,,,publicinstitution,11135
1136,둔촌2동 주민센터,서울특별시 강동구 천호대로186길 7,37.5333417,127.1419612,publicinstitution,11136
1137,등촌1동주민센터,서울특별시 강서구 공항대로53가길  55,37.5558357,126.8589243,publicinstitution,11137
1138,등촌1동치안센터,서울특별시 강서구 공항대로  501,37.5525012,126.8623175,publicinstitution,11138
1139,등촌2동주민센터,서울특별시 강서구 등촌로  143,37.5426586,126.86250090000001,publicinstitution,11139
1140,등촌2파출소,서울특별시 강서구 등촌로  167,37.5448208,126.86189040000001,publicinstitution,11140
1141,등촌3동주민센터,서울특별시 강서구 화곡로63길  96,37.558914,126.8479146,publicinstitution,11141
1142,등촌동우체국,서울특별시 강서구 화곡로63길 90,37.558862100000006,126.8482017,publicinstitution,11142
1143,뚝섬우체국,서울특별시 성동구 뚝섬로3길  14,37.5414253,127.0496213,publicinstitution,11143
1144,마들파출소,서울특별시 노원구 한글비석로 489,37.6646152,127.0636226,publicinstitution,11144
1145,마장동주민센터,서울특별시 성동구 마장로42길   11,37.5663274,127.04542990000002,publicinstitution,11145
1146,마장우체국,서울특별시 성동구 고산자로 352,37.5709095,127.03821119999999,publicinstitution,11146
1147,마장치안센터,서울특별시 성동구 고산자로 332,37.569146999999994,127.0375717,publicinstitution,11147
1148,마천1동주민센터,서울특별시 송파구 마천로 343,37.4930604,127.15267890000001,publicinstitution,11148
1149,마천2동주민센터,서울특별시 송파구 마천로  287,37.496855100000005,127.14855530000001,publicinstitution,11149
1150,마천동우체국,서울특별시 송파구 거마로24길 34,,,publicinstitution,11150
1151,마천지구대,서울특별시 송파구 마천로41길 8,37.497041700000004,127.1482294,publicinstitution,11151
1152,마포경찰서,서울특별시 마포구 마포대로  183,37.5510175,126.9539447,publicinstitution,11152
1153,마포우체국,서울특별시 마포구 마포대로 89,,,publicinstitution,11153
1154,망우1동치안센터,서울특별시 중랑구 망우로77길 12,37.601482,127.10636299999999,publicinstitution,11154
1155,망우3동주민센터,서울특별시 중랑구 용마산로 461,37.592382,127.0981757,publicinstitution,11155
1156,망우3치안센터,서울특별시 중랑구 용마공원로5길 13,37.5946899,127.1017918,publicinstitution,11156
1157,망우본동우체국,서울특별시 중랑구 망우로 447,37.6004186,127.1016678,publicinstitution,11157
1158,망우본동주민센터,서울특별시 중랑구 망우로77길 12,37.601482,127.10636299999999,publicinstitution,11158
1159,망우지구대,서울특별시 중랑구 망우로 391,37.5991108,127.0956923,publicinstitution,11159
1160,망원1동주민센터,서울특별시 마포구 포은로6길  10,37.555583899999995,126.905612,publicinstitution,11160
1161,망원2동주민센터,서울특별시 마포구 방울내로7길 11,37.5603124,126.9023164,publicinstitution,11161
1162,망원2동치안센터,서울특별시 마포구 월드컵로31길 18,37.56162379999999,126.903745,publicinstitution,11162
1163,망원우체국,서울특별시 마포구 월드컵로  111,37.5581802,126.90784209999998,publicinstitution,11163
1164,망원지구대,서울특별시 마포구 망원로2길  63,37.554342600000005,126.9027422,publicinstitution,11164
1165,먹골순찰지구대,서울특별시 중랑구 숙선옹주로7길 1,37.6146276,127.0815888,publicinstitution,11165
1166,면목1치안센터,서울특별시 중랑구 면목로66길 7,37.5866804,127.0886446,publicinstitution,11166
1167,면목2동주민센터,서울특별시 중랑구 동일로101길 20-15,37.589799,127.07905,publicinstitution,11167
1168,"면목3,8동 복합청사",서울특별시 중랑구 사가정로51길 48,37.5829592,127.0880893,publicinstitution,11168
1169,면목4동주민센터,서울특별시 중랑구 면목로 246,37.574673600000004,127.08557749999999,publicinstitution,11169
1170,면목4치안센터,서울특별시 중랑구 답십리로75길 61,37.574374,127.08059579999998,publicinstitution,11170
1171,면목5동복합청사,서울특별시 중랑구 동일로 619,37.585759100000004,127.07949479999999,publicinstitution,11171
1172,면목7동 주민센터,서울특별시 중랑구 면목로 298,37.579012299999995,127.08698590000002,publicinstitution,11172
1173,면목7치안센터,서울특별시 중랑구 면목로 275,37.577373,127.0857248,publicinstitution,11173
1174,면목동우체국,서울특별시 중랑구 면목로 344,37.5826133,127.0888332,publicinstitution,11174
1175,면목삼팔파출소,서울특별시 중랑구 사가정로41길 45,37.5832217,127.0841713,publicinstitution,11175
1176,면목지구대,서울특별시 중랑구 상봉로 27,37.5882009,127.09390379999999,publicinstitution,11176
1177,명동청사및남산문화예술회관,서울특별시 중구 한강대로 410,37.5548366,126.97357620000001,publicinstitution,11177
1178,명동파출소,서울특별시 중구 소월로 3,37.559388299999995,126.97618600000001,publicinstitution,11178
1179,명일1동 주민센터,서울특별시 강동구 양재대로138길 37,37.5497683,127.14599779999999,publicinstitution,11179
1180,명일2동 주민센터,서울특별시 강동구 상암로 264,37.546192600000005,127.15194509999999,publicinstitution,11180
1181,명일동우체국,서울특별시 강동구 구천면로 424-,,,publicinstitution,11181
1182,명일지구대,서울특별시 강동구 동남로 85,,,publicinstitution,11182
1183,목1동주민센터,서울특별시 양천구 목동서로 192,37.5303703,126.8712443,publicinstitution,11183
1184,목2동주민센터,서울특별시 양천구 목동중앙본로 120,37.5461527,126.8717168,publicinstitution,11184
1185,목3동주민센터,서울특별시 양천구 목동중앙남로16나길 55,37.5447468,126.8644551,publicinstitution,11185
1186,목4동주민센터,서울특별시 양천구 목동중앙로 25,37.5323943,126.8684037,publicinstitution,11186
1187,목5동주민센터,서울특별시 양천구 목동동로 375,37.535196899999995,126.8786594,publicinstitution,11187
1188,무악동 주민센터,서울특별시 종로구 통일로14길 36,37.57598970000001,126.958192,publicinstitution,11188
1189,묵1동주민센터,서울특별시 중랑구 공릉로2가길 5,37.6124237,127.0784986,publicinstitution,11189
1190,묵2동주민센터,서울특별시 중랑구 동일로157길 29,37.6096031,127.07602959999998,publicinstitution,11190
1191,묵동우체국,서울특별시 중랑구 동일로 895,37.6103715,127.07745520000002,publicinstitution,11191
1192,문래동주민센터,서울특별시 영등포구 문래로28길  15,37.517134000000006,126.89953670000001,publicinstitution,11192
1193,문래지구대,서울특별시 영등포구 경인로  759,37.5135815,126.89766259999999,publicinstitution,11193
1194,문정1동주민센터,서울특별시 송파구 동남로  116,37.4900826,127.12419779999999,publicinstitution,11194
1195,문정2동주민센터,서울특별시 송파구 중대로 16,37.4898719,127.1108425,publicinstitution,11195
1196,문화체육관광부,서울특별시 종로구 창경궁로 215,37.5820278,126.997028,publicinstitution,11196
1197,미성동 주민센터,서울특별시 관악구 난곡로 249,37.4761906,126.91556329999999,publicinstitution,11197
1198,미성동자치회관,서울특별시 관악구 난곡로52길 16,37.4782467,126.91620230000001,publicinstitution,11198
1199,미아동주민센터,서울특별시 강북구 솔매로49길 1-1,,,publicinstitution,11199
1200,미아지구대,서울특별시 강북구 도봉로 127,37.6201542,127.02828190000001,publicinstitution,11200
1201,반포1동주민센터,서울특별시 서초구 사평대로 273,37.505092700000006,127.01337759999998,publicinstitution,11201
1202,반포2동주민센터,서울특별시 서초구 신반포로15길 16,37.5045816,126.9944824,publicinstitution,11202
1203,반포3동주민센터,서울특별시 서초구 신반포로23길 78,37.511831799999996,127.00533259999999,publicinstitution,11203
1204,반포4동주민센터,서울특별시 서초구 사평대로28길 70,37.4974922,127.0003393,publicinstitution,11204
1205,반포본동주민센터,서울특별시 서초구 신반포로  10,37.5004724,126.9860783,publicinstitution,11205
1206,반포지구대,서울특별시 서초구 신반포로 176,37.504917799999994,127.00321310000001,publicinstitution,11206
1207,발산1동주민센터,서울특별시 강서구 강서로47길  54,37.5531308,126.83318999999999,publicinstitution,11207
1208,발산동우체국,서울특별시 강서구 강서로  283,37.5510853,126.83604070000001,publicinstitution,11208
1209,발산파출소,서울특별시 강서구 수명로2길  46,37.5494154,126.8260298,publicinstitution,11209
1210,방배2동주민센터,서울특별시 서초구 청두곶길 36,37.4797439,126.9855106,publicinstitution,11210
1211,방배3동주민센터,서울특별시 서초구 방배로10길  10-20,37.480331899999996,126.9990252,publicinstitution,11211
1212,방배4동주민센터,서울특별시 서초구 방배로27길 13,37.4896038,126.99135829999999,publicinstitution,11212
1213,방배경찰서,서울특별시 서초구 방배천로 54,37.4816273,126.9830176,publicinstitution,11213
1214,방배본동주민센터,서울특별시 서초구 동광로19길  38,37.4941464,126.98881850000001,publicinstitution,11214
1215,방배우체국,서울특별시 서초구 방배로 238,37.4943821,126.98977169999999,publicinstitution,11215
1216,방범CCTV관제센터,서울특별시 중랑구 봉우재로6길 5,37.589683,127.07625049999999,publicinstitution,11216
1217,방이1동주민센터,서울특별시 송파구 위례성대로16길 22,37.5109839,127.12393130000001,publicinstitution,11217
1218,방이2동주민센터,서울특별시 송파구 백제고분로 45,,,publicinstitution,11218
1219,방이우체국,서울특별시 송파구 오금로  187,37.509006899999996,127.1151531,publicinstitution,11219
1220,방이지구대,서울특별시 송파구 양재대로71길 5-6,37.5102477,127.1257635,publicinstitution,11220
1221,방학1동주민센터,서울특별시 도봉구 방학로2길  27,37.664237299999996,127.0406781,publicinstitution,11221
1222,방학2동주민센터,서울특별시 도봉구 시루봉로   226,37.6682223,127.035068,publicinstitution,11222
